{"00501":{"lat":40.922326,"lng":-72.637078,"city":"Holtsville","state":"NY"},"00544":{"lat":40.922326,"lng":-72.637078,"city":"Holtsville","state":"NY"},"01001":{"lat":42.140549,"lng":-72.788661,"city":"Agawam","state":"MA"},"01002":{"lat":42.367092,"lng":-72.464571,"city":"Amherst","state":"MA"},"01003":{"lat":42.369562,"lng":-72.63599,"city":"Amherst","state":"MA"},"01004":{"lat":42.384494,"lng":-72.513183,"city":"Amherst","state":"MA"},"01005":{"lat":42.32916,"lng":-72.139465,"city":"Barre","state":"MA"},"01007":{"lat":42.280267,"lng":-72.402056,"city":"Belchertown","state":"MA"},"01008":{"lat":42.177833,"lng":-72.958359,"city":"Blandford","state":"MA"},"01009":{"lat":42.206092,"lng":-72.340486,"city":"Bondsville","state":"MA"},"01010":{"lat":42.108585,"lng":-72.20448,"city":"Brimfield","state":"MA"},"01011":{"lat":42.294259,"lng":-72.952776,"city":"Chester","state":"MA"},"01012":{"lat":42.392274,"lng":-72.825607,"city":"Chesterfield","state":"MA"},"01013":{"lat":42.161492,"lng":-72.667341,"city":"Chicopee","state":"MA"},"01014":{"lat":42.170731,"lng":-72.604842,"city":"Chicopee","state":"MA"},"01020":{"lat":42.177492,"lng":-72.562563,"city":"Chicopee","state":"MA"},"01021":{"lat":42.170731,"lng":-72.604842,"city":"Chicopee","state":"MA"},"01022":{"lat":42.193392,"lng":-72.55436,"city":"Chicopee","state":"MA"},"01026":{"lat":42.428617,"lng":-72.909841,"city":"Cummington","state":"MA"},"01027":{"lat":42.368303,"lng":-72.768839,"city":"Easthampton","state":"MA"},"01028":{"lat":42.062009,"lng":-72.49874,"city":"East Longmeadow","state":"MA"},"01029":{"lat":42.190904,"lng":-73.051661,"city":"East Otis","state":"MA"},"01030":{"lat":42.189335,"lng":-72.79774,"city":"Feeding Hills","state":"MA"},"01031":{"lat":42.352554,"lng":-72.205724,"city":"Gilbertville","state":"MA"},"01032":{"lat":42.443837,"lng":-72.819446,"city":"Goshen","state":"MA"},"01033":{"lat":42.262285,"lng":-72.504086,"city":"Granby","state":"MA"},"01034":{"lat":42.112748,"lng":-72.952003,"city":"Granville","state":"MA"},"01035":{"lat":42.356804,"lng":-72.576613,"city":"Hadley","state":"MA"},"01036":{"lat":42.067614,"lng":-72.417507,"city":"Hampden","state":"MA"},"01037":{"lat":42.347856,"lng":-72.225251,"city":"Hardwick","state":"MA"},"01038":{"lat":42.387269,"lng":-72.643081,"city":"Hatfield","state":"MA"},"01039":{"lat":42.35641,"lng":-72.682127,"city":"Haydenville","state":"MA"},"01040":{"lat":42.198291,"lng":-72.64207,"city":"Holyoke","state":"MA"},"01041":{"lat":42.170731,"lng":-72.604842,"city":"Holyoke","state":"MA"},"01050":{"lat":42.313427,"lng":-72.903677,"city":"Huntington","state":"MA"},"01053":{"lat":42.353838,"lng":-72.704385,"city":"Leeds","state":"MA"},"01054":{"lat":42.474681,"lng":-72.467543,"city":"Leverett","state":"MA"},"01056":{"lat":42.173276,"lng":-72.627038,"city":"Ludlow","state":"MA"},"01057":{"lat":42.095323,"lng":-72.282063,"city":"Monson","state":"MA"},"01059":{"lat":42.369562,"lng":-72.63599,"city":"North Amherst","state":"MA"},"01060":{"lat":42.415154,"lng":-72.76927,"city":"Northampton","state":"MA"},"01061":{"lat":42.369562,"lng":-72.63599,"city":"Northampton","state":"MA"},"01062":{"lat":42.328838,"lng":-72.845227,"city":"Florence","state":"MA"},"01063":{"lat":42.317939,"lng":-72.640234,"city":"Northampton","state":"MA"},"01066":{"lat":42.406697,"lng":-72.633901,"city":"North Hatfield","state":"MA"},"01068":{"lat":42.346144,"lng":-72.058847,"city":"Oakham","state":"MA"},"01069":{"lat":42.176131,"lng":-72.31457,"city":"Palmer","state":"MA"},"01070":{"lat":42.448984,"lng":-72.958397,"city":"Plainfield","state":"MA"},"01071":{"lat":42.177432,"lng":-72.864558,"city":"Russell","state":"MA"},"01072":{"lat":42.471562,"lng":-72.44017,"city":"Shutesbury","state":"MA"},"01073":{"lat":42.230008,"lng":-72.728463,"city":"Southampton","state":"MA"},"01074":{"lat":42.375998,"lng":-72.149388,"city":"South Barre","state":"MA"},"01075":{"lat":42.24984,"lng":-72.58152,"city":"South Hadley","state":"MA"},"01077":{"lat":42.066644,"lng":-72.541205,"city":"Southwick","state":"MA"},"01079":{"lat":42.192892,"lng":-72.329574,"city":"Thorndike","state":"MA"},"01080":{"lat":42.179805,"lng":-72.517813,"city":"Three Rivers","state":"MA"},"01081":{"lat":42.061948,"lng":-72.213598,"city":"Wales","state":"MA"},"01082":{"lat":42.377471,"lng":-72.548549,"city":"Ware","state":"MA"},"01083":{"lat":42.204027,"lng":-72.199439,"city":"Warren","state":"MA"},"01084":{"lat":42.390303,"lng":-72.870857,"city":"West Chesterfield","state":"MA"},"01085":{"lat":42.14869,"lng":-72.501887,"city":"Westfield","state":"MA"},"01086":{"lat":42.173428,"lng":-72.847964,"city":"Westfield","state":"MA"},"01088":{"lat":42.390583,"lng":-72.646894,"city":"West Hatfield","state":"MA"},"01089":{"lat":42.125793,"lng":-72.645334,"city":"West Springfield","state":"MA"},"01090":{"lat":42.170731,"lng":-72.604842,"city":"West Springfield","state":"MA"},"01092":{"lat":42.202887,"lng":-72.229025,"city":"West Warren","state":"MA"},"01093":{"lat":42.442673,"lng":-72.652511,"city":"Whately","state":"MA"},"01094":{"lat":42.358201,"lng":-72.140846,"city":"Wheelwright","state":"MA"},"01095":{"lat":42.125974,"lng":-72.489988,"city":"Wilbraham","state":"MA"},"01096":{"lat":42.413069,"lng":-72.821653,"city":"Williamsburg","state":"MA"},"01097":{"lat":42.161743,"lng":-72.845912,"city":"Woronoco","state":"MA"},"01098":{"lat":42.40494,"lng":-72.896133,"city":"Worthington","state":"MA"},"01101":{"lat":42.170731,"lng":-72.604842,"city":"Springfield","state":"MA"},"01102":{"lat":42.170731,"lng":-72.604842,"city":"Springfield","state":"MA"},"01103":{"lat":42.103044,"lng":-72.590783,"city":"Springfield","state":"MA"},"01104":{"lat":42.128605,"lng":-72.567966,"city":"Springfield","state":"MA"},"01105":{"lat":42.099793,"lng":-72.577732,"city":"Springfield","state":"MA"},"01106":{"lat":42.049194,"lng":-72.567882,"city":"Longmeadow","state":"MA"},"01107":{"lat":42.126237,"lng":-72.586733,"city":"Springfield","state":"MA"},"01108":{"lat":42.080594,"lng":-72.558081,"city":"Springfield","state":"MA"},"01109":{"lat":42.119293,"lng":-72.548981,"city":"Springfield","state":"MA"},"01111":{"lat":42.170731,"lng":-72.604842,"city":"Springfield","state":"MA"},"01114":{"lat":42.170731,"lng":-72.604842,"city":"Springfield","state":"MA"},"01115":{"lat":42.102894,"lng":-72.591633,"city":"Springfield","state":"MA"},"01116":{"lat":42.170731,"lng":-72.604842,"city":"Longmeadow","state":"MA"},"01118":{"lat":42.093894,"lng":-72.523227,"city":"Springfield","state":"MA"},"01119":{"lat":42.124943,"lng":-72.526705,"city":"Springfield","state":"MA"},"01128":{"lat":42.094616,"lng":-72.487229,"city":"Springfield","state":"MA"},"01129":{"lat":42.124485,"lng":-72.489479,"city":"Springfield","state":"MA"},"01133":{"lat":42.170731,"lng":-72.604842,"city":"Springfield","state":"MA"},"01138":{"lat":42.170731,"lng":-72.604842,"city":"Springfield","state":"MA"},"01139":{"lat":42.170731,"lng":-72.604842,"city":"Springfield","state":"MA"},"01144":{"lat":42.101796,"lng":-72.59151,"city":"Springfield","state":"MA"},"01151":{"lat":42.150593,"lng":-72.51278,"city":"Indian Orchard","state":"MA"},"01152":{"lat":42.170731,"lng":-72.604842,"city":"Springfield","state":"MA"},"01195":{"lat":42.1,"lng":-72.58,"city":"Springfield Bmc","state":"MA"},"01199":{"lat":42.119943,"lng":-72.604983,"city":"Springfield","state":"MA"},"01201":{"lat":42.479475,"lng":-73.24807,"city":"Pittsfield","state":"MA"},"01202":{"lat":42.3929,"lng":-73.228483,"city":"Pittsfield","state":"MA"},"01203":{"lat":42.3929,"lng":-73.228483,"city":"Pittsfield","state":"MA"},"01220":{"lat":42.385595,"lng":-73.172166,"city":"Adams","state":"MA"},"01222":{"lat":42.185969,"lng":-73.318695,"city":"Ashley Falls","state":"MA"},"01223":{"lat":42.3418,"lng":-73.103468,"city":"Becket","state":"MA"},"01224":{"lat":42.3929,"lng":-73.228483,"city":"Berkshire","state":"MA"},"01225":{"lat":42.482125,"lng":-73.127483,"city":"Cheshire","state":"MA"},"01226":{"lat":42.470296,"lng":-73.08895,"city":"Dalton","state":"MA"},"01227":{"lat":42.516145,"lng":-73.092852,"city":"Dalton","state":"MA"},"01229":{"lat":42.279292,"lng":-73.343545,"city":"Glendale","state":"MA"},"01230":{"lat":42.299392,"lng":-73.26665,"city":"Great Barrington","state":"MA"},"01235":{"lat":42.29237,"lng":-73.22164,"city":"Hinsdale","state":"MA"},"01236":{"lat":42.291299,"lng":-73.358798,"city":"Housatonic","state":"MA"},"01237":{"lat":42.487569,"lng":-73.235048,"city":"Lanesboro","state":"MA"},"01238":{"lat":42.369856,"lng":-73.267465,"city":"Lee","state":"MA"},"01240":{"lat":42.459202,"lng":-73.219858,"city":"Lenox","state":"MA"},"01242":{"lat":42.338594,"lng":-73.250891,"city":"Lenox Dale","state":"MA"},"01243":{"lat":42.356088,"lng":-73.010448,"city":"Middlefield","state":"MA"},"01244":{"lat":42.122827,"lng":-73.253983,"city":"Mill River","state":"MA"},"01245":{"lat":42.18669,"lng":-73.206498,"city":"Monterey","state":"MA"},"01247":{"lat":42.426974,"lng":-73.18632,"city":"North Adams","state":"MA"},"01252":{"lat":42.198648,"lng":-73.446234,"city":"North Egremont","state":"MA"},"01253":{"lat":42.213156,"lng":-73.090434,"city":"Otis","state":"MA"},"01254":{"lat":42.233105,"lng":-73.238358,"city":"Richmond","state":"MA"},"01255":{"lat":42.148975,"lng":-73.14861,"city":"Sandisfield","state":"MA"},"01256":{"lat":42.367341,"lng":-73.128528,"city":"Savoy","state":"MA"},"01257":{"lat":42.314564,"lng":-73.267694,"city":"Sheffield","state":"MA"},"01258":{"lat":42.128075,"lng":-73.36089,"city":"South Egremont","state":"MA"},"01259":{"lat":42.198712,"lng":-73.278543,"city":"Southfield","state":"MA"},"01260":{"lat":42.286586,"lng":-73.313274,"city":"South Lee","state":"MA"},"01262":{"lat":42.304604,"lng":-73.330001,"city":"Stockbridge","state":"MA"},"01263":{"lat":42.3929,"lng":-73.228483,"city":"Stockbridge","state":"MA"},"01264":{"lat":42.220001,"lng":-73.197865,"city":"Tyringham","state":"MA"},"01266":{"lat":42.360482,"lng":-73.265354,"city":"West Stockbridge","state":"MA"},"01267":{"lat":42.642075,"lng":-73.257699,"city":"Williamstown","state":"MA"},"01270":{"lat":42.443726,"lng":-73.116127,"city":"Windsor","state":"MA"},"01301":{"lat":42.601335,"lng":-72.623619,"city":"Greenfield","state":"MA"},"01302":{"lat":42.522178,"lng":-72.624164,"city":"Greenfield","state":"MA"},"01330":{"lat":42.562391,"lng":-72.738152,"city":"Ashfield","state":"MA"},"01331":{"lat":42.547302,"lng":-72.183903,"city":"Athol","state":"MA"},"01337":{"lat":42.62706,"lng":-72.642888,"city":"Bernardston","state":"MA"},"01338":{"lat":42.573832,"lng":-72.769487,"city":"Buckland","state":"MA"},"01339":{"lat":42.594252,"lng":-72.665507,"city":"Charlemont","state":"MA"},"01340":{"lat":42.681539,"lng":-72.822986,"city":"Colrain","state":"MA"},"01341":{"lat":42.590824,"lng":-72.70976,"city":"Conway","state":"MA"},"01342":{"lat":42.54723,"lng":-72.607679,"city":"Deerfield","state":"MA"},"01343":{"lat":42.642666,"lng":-72.986231,"city":"Drury","state":"MA"},"01344":{"lat":42.627072,"lng":-72.553654,"city":"Erving","state":"MA"},"01346":{"lat":42.618011,"lng":-72.788896,"city":"Heath","state":"MA"},"01347":{"lat":42.556558,"lng":-72.518104,"city":"Lake Pleasant","state":"MA"},"01349":{"lat":42.621412,"lng":-72.705633,"city":"Turners Falls","state":"MA"},"01350":{"lat":42.721456,"lng":-72.976204,"city":"Monroe Bridge","state":"MA"},"01351":{"lat":42.548107,"lng":-72.48693,"city":"Montague","state":"MA"},"01354":{"lat":42.522178,"lng":-72.624164,"city":"Northfield","state":"MA"},"01355":{"lat":42.518718,"lng":-72.534371,"city":"New Salem","state":"MA"},"01360":{"lat":42.614152,"lng":-72.528209,"city":"Northfield","state":"MA"},"01364":{"lat":42.578325,"lng":-72.556589,"city":"Orange","state":"MA"},"01366":{"lat":42.459632,"lng":-72.182962,"city":"Petersham","state":"MA"},"01367":{"lat":42.683065,"lng":-72.715667,"city":"Rowe","state":"MA"},"01368":{"lat":42.672182,"lng":-72.196376,"city":"Royalston","state":"MA"},"01369":{"lat":42.522178,"lng":-72.624164,"city":"Shattuckville","state":"MA"},"01370":{"lat":42.588812,"lng":-72.758781,"city":"Shelburne Falls","state":"MA"},"01373":{"lat":42.464522,"lng":-72.682346,"city":"South Deerfield","state":"MA"},"01375":{"lat":42.565346,"lng":-72.70094,"city":"Sunderland","state":"MA"},"01376":{"lat":42.654878,"lng":-72.718123,"city":"Turners Falls","state":"MA"},"01378":{"lat":42.667059,"lng":-72.339655,"city":"Warwick","state":"MA"},"01379":{"lat":42.581007,"lng":-72.437179,"city":"Wendell","state":"MA"},"01380":{"lat":42.553431,"lng":-72.392694,"city":"Wendell Depot","state":"MA"},"01420":{"lat":42.583689,"lng":-71.816767,"city":"Fitchburg","state":"MA"},"01430":{"lat":42.654906,"lng":-71.920942,"city":"Ashburnham","state":"MA"},"01431":{"lat":42.446396,"lng":-71.459405,"city":"Ashby","state":"MA"},"01432":{"lat":42.446396,"lng":-71.459405,"city":"Ayer","state":"MA"},"01434":{"lat":42.53,"lng":-71.61,"city":"Devens","state":"MA"},"01436":{"lat":42.601427,"lng":-72.083838,"city":"Baldwinville","state":"MA"},"01438":{"lat":42.551681,"lng":-72.029434,"city":"East Templeton","state":"MA"},"01440":{"lat":42.582529,"lng":-72.025884,"city":"Gardner","state":"MA"},"01441":{"lat":42.364807,"lng":-71.896868,"city":"Westminster","state":"MA"},"01450":{"lat":42.446396,"lng":-71.459405,"city":"Groton","state":"MA"},"01451":{"lat":42.500187,"lng":-71.575864,"city":"Harvard","state":"MA"},"01452":{"lat":42.483895,"lng":-72.011516,"city":"Hubbardston","state":"MA"},"01453":{"lat":42.471316,"lng":-71.837509,"city":"Leominster","state":"MA"},"01460":{"lat":42.446396,"lng":-71.459405,"city":"Littleton","state":"MA"},"01462":{"lat":42.583322,"lng":-71.752266,"city":"Lunenburg","state":"MA"},"01463":{"lat":42.446396,"lng":-71.459405,"city":"Pepperell","state":"MA"},"01464":{"lat":42.446396,"lng":-71.459405,"city":"Shirley","state":"MA"},"01467":{"lat":42.487056,"lng":-71.613078,"city":"Still River","state":"MA"},"01468":{"lat":42.555059,"lng":-72.072285,"city":"Templeton","state":"MA"},"01469":{"lat":42.446396,"lng":-71.459405,"city":"Townsend","state":"MA"},"01470":{"lat":42.446396,"lng":-71.459405,"city":"Groton","state":"MA"},"01471":{"lat":42.446396,"lng":-71.459405,"city":"Groton","state":"MA"},"01472":{"lat":42.446396,"lng":-71.459405,"city":"West Groton","state":"MA"},"01473":{"lat":42.549489,"lng":-71.913219,"city":"Westminster","state":"MA"},"01474":{"lat":42.446396,"lng":-71.459405,"city":"West Townsend","state":"MA"},"01475":{"lat":42.661612,"lng":-72.047876,"city":"Winchendon","state":"MA"},"01477":{"lat":42.364807,"lng":-71.896868,"city":"Winchendon Springs","state":"MA"},"01501":{"lat":42.184835,"lng":-71.947184,"city":"Auburn","state":"MA"},"01503":{"lat":42.3129,"lng":-71.841656,"city":"Berlin","state":"MA"},"01504":{"lat":42.114078,"lng":-71.799785,"city":"Blackstone","state":"MA"},"01505":{"lat":42.300037,"lng":-71.943458,"city":"Boylston","state":"MA"},"01506":{"lat":42.19169,"lng":-72.105011,"city":"Brookfield","state":"MA"},"01507":{"lat":42.13277,"lng":-71.972627,"city":"Charlton","state":"MA"},"01508":{"lat":42.109748,"lng":-72.079455,"city":"Charlton City","state":"MA"},"01509":{"lat":42.364807,"lng":-71.896868,"city":"Charlton Depot","state":"MA"},"01510":{"lat":42.413972,"lng":-71.687523,"city":"Clinton","state":"MA"},"01515":{"lat":42.205311,"lng":-72.049907,"city":"East Brookfield","state":"MA"},"01516":{"lat":42.113076,"lng":-71.891139,"city":"Douglas","state":"MA"},"01517":{"lat":42.364807,"lng":-71.896868,"city":"East Princeton","state":"MA"},"01518":{"lat":42.106405,"lng":-72.114045,"city":"Fiskdale","state":"MA"},"01519":{"lat":42.203944,"lng":-71.682862,"city":"Grafton","state":"MA"},"01520":{"lat":42.336791,"lng":-71.845316,"city":"Holden","state":"MA"},"01521":{"lat":42.061063,"lng":-72.163991,"city":"Holland","state":"MA"},"01522":{"lat":42.264629,"lng":-71.795442,"city":"Jefferson","state":"MA"},"01523":{"lat":42.427188,"lng":-71.91177,"city":"Lancaster","state":"MA"},"01524":{"lat":42.238192,"lng":-72.012379,"city":"Leicester","state":"MA"},"01525":{"lat":42.364807,"lng":-71.896868,"city":"Linwood","state":"MA"},"01526":{"lat":42.364807,"lng":-71.896868,"city":"Manchaug","state":"MA"},"01527":{"lat":42.255642,"lng":-71.819961,"city":"Millbury","state":"MA"},"01529":{"lat":42.124662,"lng":-71.846943,"city":"Millville","state":"MA"},"01531":{"lat":42.320938,"lng":-72.128644,"city":"New Braintree","state":"MA"},"01532":{"lat":42.322118,"lng":-71.64282,"city":"Northborough","state":"MA"},"01534":{"lat":42.207191,"lng":-71.856807,"city":"Northbridge","state":"MA"},"01535":{"lat":42.275382,"lng":-72.089338,"city":"North Brookfield","state":"MA"},"01536":{"lat":42.407556,"lng":-71.860402,"city":"North Grafton","state":"MA"},"01537":{"lat":42.166241,"lng":-71.891052,"city":"North Oxford","state":"MA"},"01538":{"lat":42.364807,"lng":-71.896868,"city":"North Uxbridge","state":"MA"},"01540":{"lat":42.109223,"lng":-71.855444,"city":"Oxford","state":"MA"},"01541":{"lat":42.451926,"lng":-71.880057,"city":"Princeton","state":"MA"},"01542":{"lat":42.220085,"lng":-71.914361,"city":"Rochdale","state":"MA"},"01543":{"lat":42.383516,"lng":-71.95463,"city":"Rutland","state":"MA"},"01545":{"lat":42.286992,"lng":-71.715313,"city":"Shrewsbury","state":"MA"},"01546":{"lat":42.364807,"lng":-71.896868,"city":"Shrewsbury","state":"MA"},"01550":{"lat":42.129251,"lng":-72.031155,"city":"Southbridge","state":"MA"},"01560":{"lat":42.176544,"lng":-71.681912,"city":"South Grafton","state":"MA"},"01561":{"lat":42.443539,"lng":-71.686137,"city":"South Lancaster","state":"MA"},"01562":{"lat":42.254837,"lng":-72.065612,"city":"Spencer","state":"MA"},"01564":{"lat":42.366765,"lng":-71.939375,"city":"Sterling","state":"MA"},"01566":{"lat":42.10273,"lng":-72.080996,"city":"Sturbridge","state":"MA"},"01568":{"lat":42.175591,"lng":-71.603197,"city":"Upton","state":"MA"},"01569":{"lat":42.059736,"lng":-71.638438,"city":"Uxbridge","state":"MA"},"01570":{"lat":42.1351,"lng":-71.994169,"city":"Webster","state":"MA"},"01571":{"lat":42.059189,"lng":-71.937037,"city":"Dudley","state":"MA"},"01580":{"lat":42.364807,"lng":-71.896868,"city":"Westborough","state":"MA"},"01581":{"lat":42.255222,"lng":-71.845865,"city":"Westborough","state":"MA"},"01582":{"lat":42.364807,"lng":-71.896868,"city":"Westborough","state":"MA"},"01583":{"lat":42.362783,"lng":-71.781215,"city":"West Boylston","state":"MA"},"01585":{"lat":42.235638,"lng":-72.172523,"city":"West Brookfield","state":"MA"},"01586":{"lat":42.364807,"lng":-71.896868,"city":"West Millbury","state":"MA"},"01588":{"lat":42.166554,"lng":-71.899484,"city":"Whitinsville","state":"MA"},"01590":{"lat":42.126575,"lng":-71.755193,"city":"Sutton","state":"MA"},"01601":{"lat":42.265275,"lng":-71.879415,"city":"Worcester","state":"MA"},"01602":{"lat":42.274595,"lng":-71.846966,"city":"Worcester","state":"MA"},"01603":{"lat":42.245442,"lng":-71.839257,"city":"Worcester","state":"MA"},"01604":{"lat":42.247955,"lng":-71.76678,"city":"Worcester","state":"MA"},"01605":{"lat":42.288792,"lng":-71.796128,"city":"Worcester","state":"MA"},"01606":{"lat":42.311834,"lng":-71.794465,"city":"Worcester","state":"MA"},"01607":{"lat":42.226452,"lng":-71.792506,"city":"Worcester","state":"MA"},"01608":{"lat":42.293501,"lng":-71.925696,"city":"Worcester","state":"MA"},"01609":{"lat":42.282565,"lng":-71.827685,"city":"Worcester","state":"MA"},"01610":{"lat":42.246483,"lng":-71.808915,"city":"Worcester","state":"MA"},"01611":{"lat":42.239392,"lng":-71.878716,"city":"Cherry Valley","state":"MA"},"01612":{"lat":42.304675,"lng":-71.892875,"city":"Paxton","state":"MA"},"01613":{"lat":42.293316,"lng":-71.801971,"city":"Worcester","state":"MA"},"01614":{"lat":42.364807,"lng":-71.896868,"city":"Worcester","state":"MA"},"01615":{"lat":42.364807,"lng":-71.896868,"city":"Worcester","state":"MA"},"01653":{"lat":42.364807,"lng":-71.896868,"city":"Worcester","state":"MA"},"01654":{"lat":42.364807,"lng":-71.896868,"city":"Worcester","state":"MA"},"01655":{"lat":42.364807,"lng":-71.896868,"city":"Worcester","state":"MA"},"01701":{"lat":42.446396,"lng":-71.459405,"city":"Framingham","state":"MA"},"01702":{"lat":42.446396,"lng":-71.459405,"city":"Framingham","state":"MA"},"01703":{"lat":42.446396,"lng":-71.459405,"city":"Framingham","state":"MA"},"01704":{"lat":42.446396,"lng":-71.459405,"city":"Framingham","state":"MA"},"01705":{"lat":42.446396,"lng":-71.459405,"city":"Framingham","state":"MA"},"01718":{"lat":42.446396,"lng":-71.459405,"city":"Village Of Nagog Woods","state":"MA"},"01719":{"lat":42.446396,"lng":-71.459405,"city":"Boxborough","state":"MA"},"01720":{"lat":42.446396,"lng":-71.459405,"city":"Acton","state":"MA"},"01721":{"lat":42.446396,"lng":-71.459405,"city":"Ashland","state":"MA"},"01730":{"lat":42.446396,"lng":-71.459405,"city":"Bedford","state":"MA"},"01731":{"lat":42.446396,"lng":-71.459405,"city":"Hanscom Afb","state":"MA"},"01740":{"lat":42.436043,"lng":-71.605916,"city":"Bolton","state":"MA"},"01741":{"lat":42.446396,"lng":-71.459405,"city":"Carlisle","state":"MA"},"01742":{"lat":42.446396,"lng":-71.459405,"city":"Concord","state":"MA"},"01745":{"lat":42.293442,"lng":-71.502762,"city":"Fayville","state":"MA"},"01746":{"lat":42.446396,"lng":-71.459405,"city":"Holliston","state":"MA"},"01747":{"lat":42.127515,"lng":-71.533138,"city":"Hopedale","state":"MA"},"01748":{"lat":42.446396,"lng":-71.459405,"city":"Hopkinton","state":"MA"},"01749":{"lat":42.446396,"lng":-71.459405,"city":"Hudson","state":"MA"},"01752":{"lat":42.446396,"lng":-71.459405,"city":"Marlborough","state":"MA"},"01754":{"lat":42.446396,"lng":-71.459405,"city":"Maynard","state":"MA"},"01756":{"lat":42.100352,"lng":-71.546961,"city":"Mendon","state":"MA"},"01757":{"lat":42.147087,"lng":-71.528085,"city":"Milford","state":"MA"},"01760":{"lat":42.446396,"lng":-71.459405,"city":"Natick","state":"MA"},"01770":{"lat":42.446396,"lng":-71.459405,"city":"Sherborn","state":"MA"},"01772":{"lat":42.296842,"lng":-71.533229,"city":"Southborough","state":"MA"},"01773":{"lat":42.446396,"lng":-71.459405,"city":"Lincoln","state":"MA"},"01775":{"lat":42.446396,"lng":-71.459405,"city":"Stow","state":"MA"},"01776":{"lat":42.446396,"lng":-71.459405,"city":"Sudbury","state":"MA"},"01778":{"lat":42.446396,"lng":-71.459405,"city":"Wayland","state":"MA"},"01784":{"lat":42.446396,"lng":-71.459405,"city":"Woodville","state":"MA"},"01801":{"lat":42.488595,"lng":-71.157271,"city":"Woburn","state":"MA"},"01803":{"lat":42.504844,"lng":-71.201539,"city":"Burlington","state":"MA"},"01805":{"lat":42.446396,"lng":-71.459405,"city":"Burlington","state":"MA"},"01806":{"lat":42.446396,"lng":-71.459405,"city":"Woburn","state":"MA"},"01807":{"lat":42.446396,"lng":-71.459405,"city":"Woburn","state":"MA"},"01808":{"lat":42.446396,"lng":-71.459405,"city":"Woburn","state":"MA"},"01810":{"lat":42.647991,"lng":-71.165685,"city":"Andover","state":"MA"},"01812":{"lat":42.647191,"lng":-71.184202,"city":"Andover","state":"MA"},"01813":{"lat":42.446396,"lng":-71.459405,"city":"Woburn","state":"MA"},"01815":{"lat":42.446396,"lng":-71.459405,"city":"Woburn","state":"MA"},"01821":{"lat":42.446396,"lng":-71.459405,"city":"Billerica","state":"MA"},"01822":{"lat":42.446396,"lng":-71.459405,"city":"Billerica","state":"MA"},"01824":{"lat":42.446396,"lng":-71.459405,"city":"Chelmsford","state":"MA"},"01826":{"lat":42.446396,"lng":-71.459405,"city":"Dracut","state":"MA"},"01827":{"lat":42.446396,"lng":-71.459405,"city":"Dunstable","state":"MA"},"01830":{"lat":42.792639,"lng":-71.072501,"city":"Haverhill","state":"MA"},"01831":{"lat":42.771095,"lng":-71.122054,"city":"Haverhill","state":"MA"},"01832":{"lat":42.789627,"lng":-71.126562,"city":"Haverhill","state":"MA"},"01833":{"lat":42.72377,"lng":-70.981298,"city":"Georgetown","state":"MA"},"01834":{"lat":42.751074,"lng":-71.021437,"city":"Groveland","state":"MA"},"01835":{"lat":42.752844,"lng":-71.084301,"city":"Haverhill","state":"MA"},"01840":{"lat":42.70734,"lng":-71.161052,"city":"Lawrence","state":"MA"},"01841":{"lat":42.70979,"lng":-71.164402,"city":"Lawrence","state":"MA"},"01842":{"lat":42.635443,"lng":-70.879123,"city":"Lawrence","state":"MA"},"01843":{"lat":42.71037,"lng":-71.088303,"city":"Lawrence","state":"MA"},"01844":{"lat":42.73184,"lng":-71.186915,"city":"Methuen","state":"MA"},"01845":{"lat":42.672835,"lng":-71.087689,"city":"North Andover","state":"MA"},"01850":{"lat":42.446396,"lng":-71.459405,"city":"Lowell","state":"MA"},"01851":{"lat":42.446396,"lng":-71.459405,"city":"Lowell","state":"MA"},"01852":{"lat":42.446396,"lng":-71.459405,"city":"Lowell","state":"MA"},"01853":{"lat":42.446396,"lng":-71.459405,"city":"Lowell","state":"MA"},"01854":{"lat":42.446396,"lng":-71.459405,"city":"Lowell","state":"MA"},"01860":{"lat":42.802441,"lng":-71.0896,"city":"Merrimac","state":"MA"},"01862":{"lat":42.446396,"lng":-71.459405,"city":"North Billerica","state":"MA"},"01863":{"lat":42.446396,"lng":-71.459405,"city":"North Chelmsford","state":"MA"},"01864":{"lat":42.581332,"lng":-71.083725,"city":"North Reading","state":"MA"},"01865":{"lat":42.446396,"lng":-71.459405,"city":"Nutting Lake","state":"MA"},"01866":{"lat":42.446396,"lng":-71.459405,"city":"Pinehurst","state":"MA"},"01867":{"lat":42.537065,"lng":-71.107172,"city":"Reading","state":"MA"},"01876":{"lat":42.446396,"lng":-71.459405,"city":"Tewksbury","state":"MA"},"01879":{"lat":42.446396,"lng":-71.459405,"city":"Tyngsboro","state":"MA"},"01880":{"lat":42.499891,"lng":-71.068829,"city":"Wakefield","state":"MA"},"01885":{"lat":42.635443,"lng":-70.879123,"city":"West Boxford","state":"MA"},"01886":{"lat":42.446396,"lng":-71.459405,"city":"Westford","state":"MA"},"01887":{"lat":42.561782,"lng":-71.173888,"city":"Wilmington","state":"MA"},"01888":{"lat":42.446396,"lng":-71.459405,"city":"Woburn","state":"MA"},"01889":{"lat":42.571633,"lng":-71.109646,"city":"North Reading","state":"MA"},"01890":{"lat":42.454545,"lng":-71.148779,"city":"Winchester","state":"MA"},"01899":{"lat":42.635443,"lng":-70.879123,"city":"Andover","state":"MA"},"01901":{"lat":42.461246,"lng":-70.946743,"city":"Lynn","state":"MA"},"01902":{"lat":42.473195,"lng":-70.928593,"city":"Lynn","state":"MA"},"01903":{"lat":42.635443,"lng":-70.879123,"city":"Lynn","state":"MA"},"01904":{"lat":42.488896,"lng":-70.964694,"city":"Lynn","state":"MA"},"01905":{"lat":42.469395,"lng":-70.972844,"city":"Lynn","state":"MA"},"01906":{"lat":42.472112,"lng":-70.997794,"city":"Saugus","state":"MA"},"01907":{"lat":42.513295,"lng":-70.905893,"city":"Swampscott","state":"MA"},"01908":{"lat":42.427296,"lng":-70.922442,"city":"Nahant","state":"MA"},"01910":{"lat":42.454796,"lng":-70.974694,"city":"Lynn","state":"MA"},"01913":{"lat":42.853539,"lng":-70.948211,"city":"Amesbury","state":"MA"},"01915":{"lat":42.565145,"lng":-70.853843,"city":"Beverly","state":"MA"},"01921":{"lat":42.683256,"lng":-71.017403,"city":"Boxford","state":"MA"},"01922":{"lat":42.763216,"lng":-70.92812,"city":"Byfield","state":"MA"},"01923":{"lat":42.577188,"lng":-70.949245,"city":"Danvers","state":"MA"},"01929":{"lat":42.62781,"lng":-70.780576,"city":"Essex","state":"MA"},"01930":{"lat":42.630011,"lng":-70.694179,"city":"Gloucester","state":"MA"},"01931":{"lat":42.635443,"lng":-70.879123,"city":"Gloucester","state":"MA"},"01936":{"lat":42.635443,"lng":-70.879123,"city":"Hamilton","state":"MA"},"01937":{"lat":42.635443,"lng":-70.879123,"city":"Hathorne","state":"MA"},"01938":{"lat":42.68571,"lng":-70.864132,"city":"Ipswich","state":"MA"},"01940":{"lat":42.533732,"lng":-71.028775,"city":"Lynnfield","state":"MA"},"01944":{"lat":42.579503,"lng":-70.755062,"city":"Manchester","state":"MA"},"01945":{"lat":42.56142,"lng":-70.770768,"city":"Marblehead","state":"MA"},"01949":{"lat":42.644942,"lng":-71.087905,"city":"Middleton","state":"MA"},"01950":{"lat":42.80965,"lng":-70.873196,"city":"Newburyport","state":"MA"},"01951":{"lat":42.777524,"lng":-70.867246,"city":"Newbury","state":"MA"},"01952":{"lat":42.851234,"lng":-70.865667,"city":"Salisbury","state":"MA"},"01960":{"lat":42.536996,"lng":-70.973646,"city":"Peabody","state":"MA"},"01961":{"lat":42.635443,"lng":-70.879123,"city":"Peabody","state":"MA"},"01965":{"lat":42.558113,"lng":-70.825743,"city":"Prides Crossing","state":"MA"},"01966":{"lat":42.657866,"lng":-70.618057,"city":"Rockport","state":"MA"},"01969":{"lat":42.716155,"lng":-70.892754,"city":"Rowley","state":"MA"},"01970":{"lat":42.512946,"lng":-70.904237,"city":"Salem","state":"MA"},"01971":{"lat":42.635443,"lng":-70.879123,"city":"Salem","state":"MA"},"01982":{"lat":42.626664,"lng":-70.851125,"city":"South Hamilton","state":"MA"},"01983":{"lat":42.661793,"lng":-70.954487,"city":"Topsfield","state":"MA"},"01984":{"lat":42.597691,"lng":-70.8732,"city":"Wenham","state":"MA"},"01985":{"lat":42.79414,"lng":-70.971068,"city":"West Newbury","state":"MA"},"02018":{"lat":41.970474,"lng":-70.701357,"city":"Accord","state":"MA"},"02019":{"lat":42.076501,"lng":-71.470464,"city":"Bellingham","state":"MA"},"02020":{"lat":42.081825,"lng":-70.643868,"city":"Brant Rock","state":"MA"},"02021":{"lat":42.179146,"lng":-71.121185,"city":"Canton","state":"MA"},"02025":{"lat":42.233938,"lng":-70.815826,"city":"Cohasset","state":"MA"},"02026":{"lat":42.244733,"lng":-71.181141,"city":"Dedham","state":"MA"},"02027":{"lat":42.180048,"lng":-71.08923,"city":"Dedham","state":"MA"},"02030":{"lat":42.236114,"lng":-71.283072,"city":"Dover","state":"MA"},"02031":{"lat":41.998799,"lng":-71.200894,"city":"East Mansfield","state":"MA"},"02032":{"lat":42.153786,"lng":-71.21455,"city":"East Walpole","state":"MA"},"02035":{"lat":42.062204,"lng":-71.235774,"city":"Foxboro","state":"MA"},"02038":{"lat":42.08868,"lng":-71.404814,"city":"Franklin","state":"MA"},"02040":{"lat":41.970474,"lng":-70.701357,"city":"Greenbush","state":"MA"},"02041":{"lat":42.069642,"lng":-70.649075,"city":"Green Harbor","state":"MA"},"02043":{"lat":42.212105,"lng":-70.884989,"city":"Hingham","state":"MA"},"02044":{"lat":41.970474,"lng":-70.701357,"city":"Hingham","state":"MA"},"02045":{"lat":42.284413,"lng":-70.873659,"city":"Hull","state":"MA"},"02047":{"lat":42.142836,"lng":-70.69353,"city":"Humarock","state":"MA"},"02048":{"lat":42.013182,"lng":-71.218373,"city":"Mansfield","state":"MA"},"02050":{"lat":42.111805,"lng":-70.710744,"city":"Marshfield","state":"MA"},"02051":{"lat":42.151202,"lng":-70.734146,"city":"Marshfield Hills","state":"MA"},"02052":{"lat":42.181265,"lng":-71.309934,"city":"Medfield","state":"MA"},"02053":{"lat":42.156282,"lng":-71.427663,"city":"Medway","state":"MA"},"02054":{"lat":42.165249,"lng":-71.36126,"city":"Millis","state":"MA"},"02055":{"lat":41.970474,"lng":-70.701357,"city":"Minot","state":"MA"},"02056":{"lat":42.117511,"lng":-71.331793,"city":"Norfolk","state":"MA"},"02059":{"lat":41.970474,"lng":-70.701357,"city":"North Marshfield","state":"MA"},"02060":{"lat":41.970474,"lng":-70.701357,"city":"North Scituate","state":"MA"},"02061":{"lat":42.154145,"lng":-70.823035,"city":"Norwell","state":"MA"},"02062":{"lat":42.182798,"lng":-71.196277,"city":"Norwood","state":"MA"},"02065":{"lat":42.097219,"lng":-70.651567,"city":"Ocean Bluff","state":"MA"},"02066":{"lat":42.207254,"lng":-70.770188,"city":"Scituate","state":"MA"},"02067":{"lat":42.105288,"lng":-71.184785,"city":"Sharon","state":"MA"},"02070":{"lat":42.180048,"lng":-71.08923,"city":"Sheldonville","state":"MA"},"02071":{"lat":42.100399,"lng":-71.270933,"city":"South Walpole","state":"MA"},"02072":{"lat":42.118416,"lng":-71.105733,"city":"Stoughton","state":"MA"},"02081":{"lat":42.148624,"lng":-71.255533,"city":"Walpole","state":"MA"},"02090":{"lat":42.220548,"lng":-71.199238,"city":"Westwood","state":"MA"},"02093":{"lat":42.054311,"lng":-71.371169,"city":"Wrentham","state":"MA"},"02101":{"lat":42.370567,"lng":-71.026964,"city":"Boston","state":"MA"},"02102":{"lat":42.338947,"lng":-70.919635,"city":"Boston","state":"MA"},"02103":{"lat":42.338947,"lng":-70.919635,"city":"Boston","state":"MA"},"02104":{"lat":42.338947,"lng":-70.919635,"city":"Boston","state":"MA"},"02105":{"lat":42.338947,"lng":-70.919635,"city":"Boston","state":"MA"},"02106":{"lat":42.354318,"lng":-71.073449,"city":"Boston","state":"MA"},"02107":{"lat":42.338947,"lng":-70.919635,"city":"Boston","state":"MA"},"02108":{"lat":42.353806,"lng":-71.102446,"city":"Boston","state":"MA"},"02109":{"lat":42.360027,"lng":-71.054495,"city":"Boston","state":"MA"},"02110":{"lat":42.352847,"lng":-71.051466,"city":"Boston","state":"MA"},"02111":{"lat":42.351047,"lng":-71.059365,"city":"Boston","state":"MA"},"02112":{"lat":42.338947,"lng":-70.919635,"city":"Boston","state":"MA"},"02113":{"lat":42.365398,"lng":-71.055001,"city":"Boston","state":"MA"},"02114":{"lat":42.362097,"lng":-71.023661,"city":"Boston","state":"MA"},"02115":{"lat":42.342043,"lng":-71.096848,"city":"Boston","state":"MA"},"02116":{"lat":42.347207,"lng":-71.086095,"city":"Boston","state":"MA"},"02117":{"lat":42.338947,"lng":-70.919635,"city":"Boston","state":"MA"},"02118":{"lat":42.336162,"lng":-71.072854,"city":"Boston","state":"MA"},"02119":{"lat":42.323077,"lng":-71.084608,"city":"Boston","state":"MA"},"02120":{"lat":42.332484,"lng":-71.096416,"city":"Boston","state":"MA"},"02121":{"lat":42.307098,"lng":-71.081645,"city":"Boston","state":"MA"},"02122":{"lat":42.29658,"lng":-71.055215,"city":"Boston","state":"MA"},"02123":{"lat":42.338947,"lng":-70.919635,"city":"Boston","state":"MA"},"02124":{"lat":42.286784,"lng":-71.071045,"city":"Boston","state":"MA"},"02125":{"lat":42.31476,"lng":-71.067244,"city":"Boston","state":"MA"},"02126":{"lat":42.301247,"lng":-71.105195,"city":"Mattapan","state":"MA"},"02127":{"lat":42.329023,"lng":-71.020343,"city":"Boston","state":"MA"},"02128":{"lat":42.364197,"lng":-71.025694,"city":"Boston","state":"MA"},"02129":{"lat":42.382588,"lng":-71.065287,"city":"Charlestown","state":"MA"},"02130":{"lat":42.309661,"lng":-71.121097,"city":"Jamaica Plain","state":"MA"},"02131":{"lat":42.284197,"lng":-71.120896,"city":"Roslindale","state":"MA"},"02132":{"lat":42.277897,"lng":-71.155833,"city":"West Roxbury","state":"MA"},"02133":{"lat":42.338947,"lng":-70.919635,"city":"Boston","state":"MA"},"02134":{"lat":42.357169,"lng":-71.112646,"city":"Allston","state":"MA"},"02135":{"lat":42.349768,"lng":-71.104888,"city":"Brighton","state":"MA"},"02136":{"lat":42.254248,"lng":-71.129321,"city":"Hyde Park","state":"MA"},"02137":{"lat":42.338947,"lng":-70.919635,"city":"Readville","state":"MA"},"02138":{"lat":42.380442,"lng":-71.132947,"city":"Cambridge","state":"MA"},"02139":{"lat":42.365146,"lng":-71.101842,"city":"Cambridge","state":"MA"},"02140":{"lat":42.393246,"lng":-71.133833,"city":"Cambridge","state":"MA"},"02141":{"lat":42.368673,"lng":-71.083596,"city":"Cambridge","state":"MA"},"02142":{"lat":42.36284,"lng":-71.084814,"city":"Cambridge","state":"MA"},"02143":{"lat":42.38092,"lng":-71.098896,"city":"Somerville","state":"MA"},"02144":{"lat":42.402696,"lng":-71.12022,"city":"Somerville","state":"MA"},"02145":{"lat":42.391046,"lng":-71.095146,"city":"Somerville","state":"MA"},"02148":{"lat":42.436545,"lng":-71.085396,"city":"Malden","state":"MA"},"02149":{"lat":42.407396,"lng":-71.051183,"city":"Everett","state":"MA"},"02150":{"lat":42.378197,"lng":-71.038894,"city":"Chelsea","state":"MA"},"02151":{"lat":42.366303,"lng":-71.020494,"city":"Revere","state":"MA"},"02152":{"lat":42.378447,"lng":-70.981679,"city":"Winthrop","state":"MA"},"02153":{"lat":42.446396,"lng":-71.459405,"city":"Medford","state":"MA"},"02155":{"lat":42.422095,"lng":-71.109297,"city":"Medford","state":"MA"},"02156":{"lat":42.446396,"lng":-71.459405,"city":"West Medford","state":"MA"},"02163":{"lat":42.32532,"lng":-71.112159,"city":"Boston","state":"MA"},"02169":{"lat":42.241799,"lng":-71.006042,"city":"Quincy","state":"MA"},"02170":{"lat":42.267248,"lng":-71.016742,"city":"Quincy","state":"MA"},"02171":{"lat":42.284898,"lng":-71.014243,"city":"Quincy","state":"MA"},"02176":{"lat":42.458995,"lng":-71.053095,"city":"Melrose","state":"MA"},"02177":{"lat":42.446396,"lng":-71.459405,"city":"Melrose","state":"MA"},"02180":{"lat":42.474595,"lng":-71.098146,"city":"Stoneham","state":"MA"},"02184":{"lat":42.202216,"lng":-71.005192,"city":"Braintree","state":"MA"},"02185":{"lat":42.180048,"lng":-71.08923,"city":"Braintree","state":"MA"},"02186":{"lat":42.240598,"lng":-71.078494,"city":"Milton","state":"MA"},"02187":{"lat":42.180048,"lng":-71.08923,"city":"Milton Village","state":"MA"},"02188":{"lat":42.20794,"lng":-70.95514,"city":"Weymouth","state":"MA"},"02189":{"lat":42.210649,"lng":-70.932318,"city":"Weymouth","state":"MA"},"02190":{"lat":42.167841,"lng":-70.95074,"city":"Weymouth","state":"MA"},"02191":{"lat":42.251499,"lng":-70.94484,"city":"Weymouth","state":"MA"},"02196":{"lat":42.338947,"lng":-70.919635,"city":"Boston","state":"MA"},"02199":{"lat":42.347247,"lng":-71.082395,"city":"Boston","state":"MA"},"02201":{"lat":42.338947,"lng":-70.919635,"city":"Boston","state":"MA"},"02202":{"lat":42.361094,"lng":-71.061814,"city":"Boston","state":"MA"},"02203":{"lat":42.361485,"lng":-71.060364,"city":"Boston","state":"MA"},"02204":{"lat":42.338947,"lng":-70.919635,"city":"Boston","state":"MA"},"02205":{"lat":42.350334,"lng":-71.053877,"city":"Boston","state":"MA"},"02206":{"lat":42.338947,"lng":-70.919635,"city":"Boston","state":"MA"},"02207":{"lat":42.338947,"lng":-70.919635,"city":"Boston","state":"MA"},"02208":{"lat":42.338947,"lng":-70.919635,"city":"Boston","state":"MA"},"02209":{"lat":42.338947,"lng":-70.919635,"city":"Boston","state":"MA"},"02210":{"lat":42.347547,"lng":-71.040645,"city":"Boston","state":"MA"},"02211":{"lat":42.338947,"lng":-70.919635,"city":"Boston","state":"MA"},"02212":{"lat":42.446396,"lng":-71.459405,"city":"Boston","state":"MA"},"02215":{"lat":42.345079,"lng":-71.107653,"city":"Boston","state":"MA"},"02216":{"lat":42.338947,"lng":-70.919635,"city":"Boston","state":"MA"},"02217":{"lat":42.338947,"lng":-70.919635,"city":"Boston","state":"MA"},"02222":{"lat":42.364381,"lng":-71.063314,"city":"Boston","state":"MA"},"02228":{"lat":42.36,"lng":-71.02,"city":"East Boston","state":"MA"},"02238":{"lat":42.446396,"lng":-71.459405,"city":"Cambridge","state":"MA"},"02239":{"lat":42.446396,"lng":-71.459405,"city":"Cambridge","state":"MA"},"02241":{"lat":42.338947,"lng":-70.919635,"city":"Boston","state":"MA"},"02266":{"lat":42.338947,"lng":-70.919635,"city":"Boston","state":"MA"},"02269":{"lat":42.180048,"lng":-71.08923,"city":"Quincy","state":"MA"},"02283":{"lat":42.338947,"lng":-70.919635,"city":"Boston","state":"MA"},"02284":{"lat":42.338947,"lng":-70.919635,"city":"Boston","state":"MA"},"02293":{"lat":42.338947,"lng":-70.919635,"city":"Boston","state":"MA"},"02295":{"lat":42.338947,"lng":-70.919635,"city":"Boston","state":"MA"},"02297":{"lat":42.338947,"lng":-70.919635,"city":"Boston","state":"MA"},"02298":{"lat":42.38,"lng":-71.03,"city":"Boston","state":"MA"},"02301":{"lat":42.079399,"lng":-71.03999,"city":"Brockton","state":"MA"},"02302":{"lat":42.08475,"lng":-71.000189,"city":"Brockton","state":"MA"},"02303":{"lat":41.970474,"lng":-70.701357,"city":"Brockton","state":"MA"},"02304":{"lat":41.970474,"lng":-70.701357,"city":"Brockton","state":"MA"},"02305":{"lat":41.970474,"lng":-70.701357,"city":"Brockton","state":"MA"},"02322":{"lat":42.126049,"lng":-71.048216,"city":"Avon","state":"MA"},"02324":{"lat":41.973741,"lng":-70.976558,"city":"Bridgewater","state":"MA"},"02325":{"lat":41.98725,"lng":-70.972786,"city":"Bridgewater","state":"MA"},"02327":{"lat":42.040708,"lng":-70.827245,"city":"Bryantville","state":"MA"},"02330":{"lat":41.896238,"lng":-70.759689,"city":"Carver","state":"MA"},"02331":{"lat":41.970474,"lng":-70.701357,"city":"Duxbury","state":"MA"},"02332":{"lat":42.052985,"lng":-70.710808,"city":"Duxbury","state":"MA"},"02333":{"lat":42.02285,"lng":-70.931056,"city":"East Bridgewater","state":"MA"},"02334":{"lat":42.023528,"lng":-71.132397,"city":"Easton","state":"MA"},"02337":{"lat":42.022225,"lng":-70.931588,"city":"Elmwood","state":"MA"},"02338":{"lat":41.988351,"lng":-70.860578,"city":"Halifax","state":"MA"},"02339":{"lat":42.123534,"lng":-70.851048,"city":"Hanover","state":"MA"},"02340":{"lat":42.123534,"lng":-70.851048,"city":"Hanover","state":"MA"},"02341":{"lat":42.055701,"lng":-70.875936,"city":"Hanson","state":"MA"},"02343":{"lat":42.144424,"lng":-71.00289,"city":"Holbrook","state":"MA"},"02344":{"lat":41.970474,"lng":-70.701357,"city":"Middleboro","state":"MA"},"02345":{"lat":41.888198,"lng":-70.581029,"city":"Manomet","state":"MA"},"02346":{"lat":41.915054,"lng":-70.882035,"city":"Middleboro","state":"MA"},"02347":{"lat":41.843757,"lng":-70.959981,"city":"Lakeville","state":"MA"},"02348":{"lat":41.970474,"lng":-70.701357,"city":"Middleboro","state":"MA"},"02349":{"lat":41.970474,"lng":-70.701357,"city":"Middleboro","state":"MA"},"02350":{"lat":42.018525,"lng":-70.847486,"city":"Monponsett","state":"MA"},"02351":{"lat":42.11749,"lng":-70.959888,"city":"Abington","state":"MA"},"02355":{"lat":41.916918,"lng":-70.801331,"city":"North Carver","state":"MA"},"02356":{"lat":42.053408,"lng":-71.12033,"city":"North Easton","state":"MA"},"02357":{"lat":42.064499,"lng":-71.087091,"city":"North Easton","state":"MA"},"02358":{"lat":41.95351,"lng":-70.713109,"city":"North Pembroke","state":"MA"},"02359":{"lat":42.065702,"lng":-70.800778,"city":"Pembroke","state":"MA"},"02360":{"lat":41.886207,"lng":-70.638717,"city":"Plymouth","state":"MA"},"02361":{"lat":41.970474,"lng":-70.701357,"city":"Plymouth","state":"MA"},"02362":{"lat":41.970474,"lng":-70.701357,"city":"Plymouth","state":"MA"},"02364":{"lat":41.979405,"lng":-70.744813,"city":"Kingston","state":"MA"},"02366":{"lat":41.850087,"lng":-70.704431,"city":"South Carver","state":"MA"},"02367":{"lat":41.96914,"lng":-70.812299,"city":"Plympton","state":"MA"},"02368":{"lat":42.171467,"lng":-71.055602,"city":"Randolph","state":"MA"},"02370":{"lat":41.954199,"lng":-70.885095,"city":"Rockland","state":"MA"},"02375":{"lat":42.023199,"lng":-71.111091,"city":"South Easton","state":"MA"},"02379":{"lat":42.02165,"lng":-71.023588,"city":"West Bridgewater","state":"MA"},"02381":{"lat":41.931602,"lng":-70.561051,"city":"White Horse Beach","state":"MA"},"02382":{"lat":42.0785,"lng":-70.940837,"city":"Whitman","state":"MA"},"02420":{"lat":42.45631,"lng":-71.21665,"city":"Lexington","state":"MA"},"02421":{"lat":42.442567,"lng":-71.226453,"city":"Lexington","state":"MA"},"02445":{"lat":42.318097,"lng":-71.143697,"city":"Brookline","state":"MA"},"02446":{"lat":42.343097,"lng":-71.123046,"city":"Brookline","state":"MA"},"02447":{"lat":42.180048,"lng":-71.08923,"city":"Brookline Village","state":"MA"},"02451":{"lat":42.398588,"lng":-71.24505,"city":"Waltham","state":"MA"},"02452":{"lat":42.394319,"lng":-71.218049,"city":"Waltham","state":"MA"},"02453":{"lat":42.365396,"lng":-71.23165,"city":"Waltham","state":"MA"},"02454":{"lat":42.356719,"lng":-71.250479,"city":"Waltham","state":"MA"},"02455":{"lat":42.35,"lng":-71.06,"city":"North Waltham","state":"MA"},"02456":{"lat":42.446396,"lng":-71.459405,"city":"New Town","state":"MA"},"02457":{"lat":42.180048,"lng":-71.08923,"city":"Babson Park","state":"MA"},"02458":{"lat":42.385096,"lng":-71.208399,"city":"Newton","state":"MA"},"02459":{"lat":42.334146,"lng":-71.183298,"city":"Newton Center","state":"MA"},"02460":{"lat":42.374296,"lng":-71.182371,"city":"Newtonville","state":"MA"},"02461":{"lat":42.361196,"lng":-71.205349,"city":"Newton Highlands","state":"MA"},"02462":{"lat":42.349496,"lng":-71.209699,"city":"Newton Lower Falls","state":"MA"},"02464":{"lat":42.36599,"lng":-71.221849,"city":"Newton Upper Falls","state":"MA"},"02465":{"lat":42.378145,"lng":-71.213199,"city":"West Newton","state":"MA"},"02466":{"lat":42.346696,"lng":-71.224957,"city":"Auburndale","state":"MA"},"02467":{"lat":42.357564,"lng":-71.211649,"city":"Chestnut Hill","state":"MA"},"02468":{"lat":42.327146,"lng":-71.231534,"city":"Waban","state":"MA"},"02471":{"lat":42.446396,"lng":-71.459405,"city":"Watertown","state":"MA"},"02472":{"lat":42.363096,"lng":-71.201398,"city":"Watertown","state":"MA"},"02474":{"lat":42.417595,"lng":-71.159696,"city":"Arlington","state":"MA"},"02475":{"lat":42.446396,"lng":-71.459405,"city":"Arlington Heights","state":"MA"},"02476":{"lat":42.379146,"lng":-71.184299,"city":"Arlington","state":"MA"},"02477":{"lat":42.446396,"lng":-71.459405,"city":"Watertown","state":"MA"},"02478":{"lat":42.412795,"lng":-71.204399,"city":"Belmont","state":"MA"},"02479":{"lat":42.446396,"lng":-71.459405,"city":"Waverley","state":"MA"},"02481":{"lat":42.310597,"lng":-71.274652,"city":"Wellesley Hills","state":"MA"},"02482":{"lat":42.294546,"lng":-71.299201,"city":"Wellesley","state":"MA"},"02492":{"lat":42.279797,"lng":-71.25006,"city":"Needham","state":"MA"},"02493":{"lat":42.375925,"lng":-71.227208,"city":"Weston","state":"MA"},"02494":{"lat":42.300147,"lng":-71.26315,"city":"Needham Heights","state":"MA"},"02495":{"lat":42.446396,"lng":-71.459405,"city":"Nonantum","state":"MA"},"02532":{"lat":41.745505,"lng":-70.590471,"city":"Buzzards Bay","state":"MA"},"02534":{"lat":41.669373,"lng":-70.62337,"city":"Cataumet","state":"MA"},"02535":{"lat":41.379034,"lng":-70.673082,"city":"Chilmark","state":"MA"},"02536":{"lat":41.662506,"lng":-70.562843,"city":"East Falmouth","state":"MA"},"02537":{"lat":41.72832,"lng":-70.439975,"city":"East Sandwich","state":"MA"},"02538":{"lat":41.77544,"lng":-70.660562,"city":"East Wareham","state":"MA"},"02539":{"lat":41.401176,"lng":-70.552054,"city":"Edgartown","state":"MA"},"02540":{"lat":41.614199,"lng":-70.493263,"city":"Falmouth","state":"MA"},"02541":{"lat":41.799312,"lng":-70.308662,"city":"Falmouth","state":"MA"},"02542":{"lat":41.65308,"lng":-70.553727,"city":"Buzzards Bay","state":"MA"},"02543":{"lat":41.593809,"lng":-70.646442,"city":"Woods Hole","state":"MA"},"02552":{"lat":41.379836,"lng":-70.643092,"city":"Menemsha","state":"MA"},"02553":{"lat":41.67336,"lng":-70.608047,"city":"Monument Beach","state":"MA"},"02554":{"lat":41.287647,"lng":-70.08665,"city":"Nantucket","state":"MA"},"02556":{"lat":41.652967,"lng":-70.375475,"city":"North Falmouth","state":"MA"},"02557":{"lat":41.417376,"lng":-70.560032,"city":"Oak Bluffs","state":"MA"},"02558":{"lat":41.74756,"lng":-70.658164,"city":"Onset","state":"MA"},"02559":{"lat":41.694771,"lng":-70.622769,"city":"Pocasset","state":"MA"},"02561":{"lat":41.770254,"lng":-70.533664,"city":"Sagamore","state":"MA"},"02562":{"lat":41.793263,"lng":-70.519584,"city":"Sagamore Beach","state":"MA"},"02563":{"lat":41.711291,"lng":-70.477482,"city":"Sandwich","state":"MA"},"02564":{"lat":41.273949,"lng":-70.015545,"city":"Siasconset","state":"MA"},"02565":{"lat":41.799312,"lng":-70.308662,"city":"Silver Beach","state":"MA"},"02568":{"lat":41.41595,"lng":-70.595235,"city":"Vineyard Haven","state":"MA"},"02571":{"lat":41.760216,"lng":-70.694662,"city":"Wareham","state":"MA"},"02573":{"lat":41.379836,"lng":-70.643092,"city":"West Chop","state":"MA"},"02574":{"lat":41.603946,"lng":-70.638189,"city":"West Falmouth","state":"MA"},"02575":{"lat":41.42125,"lng":-70.642806,"city":"West Tisbury","state":"MA"},"02576":{"lat":41.769863,"lng":-70.749688,"city":"West Wareham","state":"MA"},"02584":{"lat":41.277794,"lng":-70.046019,"city":"Nantucket","state":"MA"},"02601":{"lat":41.829813,"lng":-70.138834,"city":"Hyannis","state":"MA"},"02630":{"lat":41.697313,"lng":-70.301394,"city":"Barnstable","state":"MA"},"02631":{"lat":41.852997,"lng":-70.044462,"city":"Brewster","state":"MA"},"02632":{"lat":41.796311,"lng":-70.175129,"city":"Centerville","state":"MA"},"02633":{"lat":41.859559,"lng":-70.0468,"city":"Chatham","state":"MA"},"02634":{"lat":41.799312,"lng":-70.308662,"city":"Centerville","state":"MA"},"02635":{"lat":41.624341,"lng":-70.43638,"city":"Cotuit","state":"MA"},"02636":{"lat":41.799312,"lng":-70.308662,"city":"Centerville","state":"MA"},"02637":{"lat":41.701438,"lng":-70.277212,"city":"Cummaquid","state":"MA"},"02638":{"lat":41.725716,"lng":-70.089142,"city":"Dennis","state":"MA"},"02639":{"lat":41.750745,"lng":-70.071836,"city":"Dennis Port","state":"MA"},"02641":{"lat":41.734713,"lng":-70.20467,"city":"East Dennis","state":"MA"},"02642":{"lat":41.850612,"lng":-70.020648,"city":"Eastham","state":"MA"},"02643":{"lat":41.784308,"lng":-69.962034,"city":"East Orleans","state":"MA"},"02644":{"lat":41.790031,"lng":-70.268632,"city":"Forestdale","state":"MA"},"02645":{"lat":41.835582,"lng":-70.043359,"city":"Harwich","state":"MA"},"02646":{"lat":41.845717,"lng":-70.053544,"city":"Harwich Port","state":"MA"},"02647":{"lat":41.635004,"lng":-70.306336,"city":"Hyannis Port","state":"MA"},"02648":{"lat":41.813034,"lng":-70.246666,"city":"Marstons Mills","state":"MA"},"02649":{"lat":41.788337,"lng":-70.253543,"city":"Mashpee","state":"MA"},"02650":{"lat":41.73497,"lng":-70.029065,"city":"North Chatham","state":"MA"},"02651":{"lat":41.824264,"lng":-69.98176,"city":"North Eastham","state":"MA"},"02652":{"lat":41.931061,"lng":-70.283584,"city":"North Truro","state":"MA"},"02653":{"lat":41.852933,"lng":-70.01539,"city":"Orleans","state":"MA"},"02655":{"lat":41.810178,"lng":-70.191269,"city":"Osterville","state":"MA"},"02657":{"lat":41.888775,"lng":-70.091057,"city":"Provincetown","state":"MA"},"02659":{"lat":41.848932,"lng":-70.030194,"city":"South Chatham","state":"MA"},"02660":{"lat":41.80038,"lng":-70.089244,"city":"South Dennis","state":"MA"},"02661":{"lat":41.686205,"lng":-70.032858,"city":"South Harwich","state":"MA"},"02662":{"lat":41.756694,"lng":-69.984123,"city":"South Orleans","state":"MA"},"02663":{"lat":41.800531,"lng":-70.076776,"city":"South Wellfleet","state":"MA"},"02664":{"lat":41.82412,"lng":-70.084259,"city":"South Yarmouth","state":"MA"},"02666":{"lat":41.987377,"lng":-70.047163,"city":"Truro","state":"MA"},"02667":{"lat":41.821307,"lng":-70.022806,"city":"Wellfleet","state":"MA"},"02668":{"lat":41.79055,"lng":-70.201719,"city":"West Barnstable","state":"MA"},"02669":{"lat":41.698721,"lng":-70.004937,"city":"West Chatham","state":"MA"},"02670":{"lat":41.710855,"lng":-70.072195,"city":"West Dennis","state":"MA"},"02671":{"lat":41.846719,"lng":-70.038282,"city":"West Harwich","state":"MA"},"02672":{"lat":41.635635,"lng":-70.323307,"city":"West Hyannisport","state":"MA"},"02673":{"lat":41.776105,"lng":-70.150512,"city":"West Yarmouth","state":"MA"},"02675":{"lat":41.716271,"lng":-70.135884,"city":"Yarmouth Port","state":"MA"},"02702":{"lat":41.782993,"lng":-71.017328,"city":"Assonet","state":"MA"},"02703":{"lat":41.938976,"lng":-71.302297,"city":"Attleboro","state":"MA"},"02712":{"lat":41.756214,"lng":-71.067062,"city":"Chartley","state":"MA"},"02713":{"lat":41.42178,"lng":-70.931309,"city":"Cuttyhunk","state":"MA"},"02714":{"lat":41.756214,"lng":-71.067062,"city":"Dartmouth","state":"MA"},"02715":{"lat":41.817659,"lng":-71.151787,"city":"Dighton","state":"MA"},"02717":{"lat":41.747358,"lng":-70.978947,"city":"East Freetown","state":"MA"},"02718":{"lat":41.871407,"lng":-71.013148,"city":"East Taunton","state":"MA"},"02719":{"lat":41.631672,"lng":-70.870045,"city":"Fairhaven","state":"MA"},"02720":{"lat":41.819766,"lng":-71.165971,"city":"Fall River","state":"MA"},"02721":{"lat":41.678895,"lng":-71.153648,"city":"Fall River","state":"MA"},"02722":{"lat":41.756214,"lng":-71.067062,"city":"Fall River","state":"MA"},"02723":{"lat":41.693802,"lng":-71.133088,"city":"Fall River","state":"MA"},"02724":{"lat":41.684202,"lng":-71.175139,"city":"Fall River","state":"MA"},"02725":{"lat":41.723851,"lng":-71.173989,"city":"Somerset","state":"MA"},"02726":{"lat":41.757951,"lng":-71.153639,"city":"Somerset","state":"MA"},"02738":{"lat":41.736735,"lng":-70.754015,"city":"Marion","state":"MA"},"02739":{"lat":41.664976,"lng":-70.810856,"city":"Mattapoisett","state":"MA"},"02740":{"lat":41.633416,"lng":-70.951045,"city":"New Bedford","state":"MA"},"02741":{"lat":41.756214,"lng":-71.067062,"city":"New Bedford","state":"MA"},"02742":{"lat":41.619557,"lng":-70.956346,"city":"New Bedford","state":"MA"},"02743":{"lat":41.711894,"lng":-70.908286,"city":"Acushnet","state":"MA"},"02744":{"lat":41.609354,"lng":-70.916181,"city":"New Bedford","state":"MA"},"02745":{"lat":41.7087,"lng":-70.946883,"city":"New Bedford","state":"MA"},"02746":{"lat":41.665704,"lng":-70.943021,"city":"New Bedford","state":"MA"},"02747":{"lat":41.639261,"lng":-71.007578,"city":"North Dartmouth","state":"MA"},"02748":{"lat":41.566464,"lng":-70.984253,"city":"South Dartmouth","state":"MA"},"02760":{"lat":41.964376,"lng":-71.326448,"city":"North Attleboro","state":"MA"},"02761":{"lat":41.756214,"lng":-71.067062,"city":"North Attleboro","state":"MA"},"02762":{"lat":42.013553,"lng":-71.334399,"city":"Plainville","state":"MA"},"02763":{"lat":41.972584,"lng":-71.308229,"city":"Attleboro Falls","state":"MA"},"02764":{"lat":41.847791,"lng":-71.155797,"city":"North Dighton","state":"MA"},"02766":{"lat":41.959149,"lng":-71.180393,"city":"Norton","state":"MA"},"02767":{"lat":41.9367,"lng":-71.048941,"city":"Raynham","state":"MA"},"02768":{"lat":41.756214,"lng":-71.067062,"city":"Raynham Center","state":"MA"},"02769":{"lat":41.852989,"lng":-71.243061,"city":"Rehoboth","state":"MA"},"02770":{"lat":41.751812,"lng":-70.846041,"city":"Rochester","state":"MA"},"02771":{"lat":41.840103,"lng":-71.318995,"city":"Seekonk","state":"MA"},"02777":{"lat":41.766629,"lng":-71.234443,"city":"Swansea","state":"MA"},"02779":{"lat":41.828249,"lng":-71.064135,"city":"Berkley","state":"MA"},"02780":{"lat":41.858851,"lng":-71.092827,"city":"Taunton","state":"MA"},"02783":{"lat":41.756214,"lng":-71.067062,"city":"Taunton","state":"MA"},"02790":{"lat":41.61547,"lng":-71.079636,"city":"Westport","state":"MA"},"02791":{"lat":41.519104,"lng":-71.085137,"city":"Westport Point","state":"MA"},"02801":{"lat":41.530131,"lng":-71.284066,"city":"Adamsville","state":"RI"},"02802":{"lat":41.954098,"lng":-71.462053,"city":"Albion","state":"RI"},"02804":{"lat":41.322365,"lng":-71.679251,"city":"Ashaway","state":"RI"},"02806":{"lat":41.742501,"lng":-71.320395,"city":"Barrington","state":"RI"},"02807":{"lat":41.188888,"lng":-71.577696,"city":"Block Island","state":"RI"},"02808":{"lat":41.403784,"lng":-71.761665,"city":"Bradford","state":"RI"},"02809":{"lat":41.678378,"lng":-71.2704,"city":"Bristol","state":"RI"},"02812":{"lat":41.469148,"lng":-71.675092,"city":"Carolina","state":"RI"},"02813":{"lat":41.395079,"lng":-71.66542,"city":"Charlestown","state":"RI"},"02814":{"lat":41.888971,"lng":-71.688769,"city":"Chepachet","state":"RI"},"02815":{"lat":41.770525,"lng":-71.65585,"city":"Clayville","state":"RI"},"02816":{"lat":41.694251,"lng":-71.636786,"city":"Coventry","state":"RI"},"02817":{"lat":41.631168,"lng":-71.667165,"city":"West Greenwich","state":"RI"},"02818":{"lat":41.64335,"lng":-71.478002,"city":"East Greenwich","state":"RI"},"02822":{"lat":41.5469,"lng":-71.650262,"city":"Exeter","state":"RI"},"02823":{"lat":41.7312,"lng":-71.546756,"city":"Fiskeville","state":"RI"},"02824":{"lat":42.000248,"lng":-71.563057,"city":"Forestdale","state":"RI"},"02825":{"lat":41.790569,"lng":-71.70644,"city":"Foster","state":"RI"},"02826":{"lat":41.982417,"lng":-71.600848,"city":"Glendale","state":"RI"},"02827":{"lat":41.691676,"lng":-71.727467,"city":"Greene","state":"RI"},"02828":{"lat":41.879298,"lng":-71.551682,"city":"Greenville","state":"RI"},"02829":{"lat":41.879298,"lng":-71.589357,"city":"Harmony","state":"RI"},"02830":{"lat":41.97239,"lng":-71.648502,"city":"Harrisville","state":"RI"},"02831":{"lat":41.753594,"lng":-71.577746,"city":"Hope","state":"RI"},"02832":{"lat":41.509632,"lng":-71.733875,"city":"Hope Valley","state":"RI"},"02833":{"lat":41.475117,"lng":-71.772617,"city":"Hopkinton","state":"RI"},"02835":{"lat":41.51412,"lng":-71.377247,"city":"Jamestown","state":"RI"},"02836":{"lat":41.447427,"lng":-71.620432,"city":"Kenyon","state":"RI"},"02837":{"lat":41.510257,"lng":-71.16634,"city":"Little Compton","state":"RI"},"02838":{"lat":41.967848,"lng":-71.475604,"city":"Manville","state":"RI"},"02839":{"lat":41.941715,"lng":-71.637581,"city":"Mapleville","state":"RI"},"02840":{"lat":41.487552,"lng":-71.327084,"city":"Newport","state":"RI"},"02841":{"lat":41.498977,"lng":-71.299004,"city":"Newport","state":"RI"},"02842":{"lat":41.519757,"lng":-71.273101,"city":"Middletown","state":"RI"},"02852":{"lat":41.586851,"lng":-71.464801,"city":"North Kingstown","state":"RI"},"02854":{"lat":41.375317,"lng":-71.64393,"city":"North Kingstown","state":"RI"},"02857":{"lat":41.838827,"lng":-71.655006,"city":"North Scituate","state":"RI"},"02858":{"lat":41.962303,"lng":-71.647542,"city":"Oakland","state":"RI"},"02859":{"lat":41.96415,"lng":-71.723316,"city":"Pascoag","state":"RI"},"02860":{"lat":41.875149,"lng":-71.392732,"city":"Pawtucket","state":"RI"},"02861":{"lat":41.878249,"lng":-71.369899,"city":"Pawtucket","state":"RI"},"02862":{"lat":41.86125,"lng":-71.369099,"city":"Pawtucket","state":"RI"},"02863":{"lat":41.889849,"lng":-71.394186,"city":"Central Falls","state":"RI"},"02864":{"lat":41.949498,"lng":-71.43269,"city":"Cumberland","state":"RI"},"02865":{"lat":41.925298,"lng":-71.493355,"city":"Lincoln","state":"RI"},"02871":{"lat":41.58523,"lng":-71.264197,"city":"Portsmouth","state":"RI"},"02872":{"lat":41.707119,"lng":-71.286834,"city":"Prudence Island","state":"RI"},"02873":{"lat":41.519922,"lng":-71.774023,"city":"Rockville","state":"RI"},"02874":{"lat":41.478466,"lng":-71.471752,"city":"Saunderstown","state":"RI"},"02875":{"lat":41.456039,"lng":-71.635474,"city":"Shannock","state":"RI"},"02876":{"lat":41.998398,"lng":-71.576307,"city":"Slatersville","state":"RI"},"02877":{"lat":41.5289,"lng":-71.529854,"city":"Slocum","state":"RI"},"02878":{"lat":41.61018,"lng":-71.175183,"city":"Tiverton","state":"RI"},"02879":{"lat":41.443653,"lng":-71.534202,"city":"Wakefield","state":"RI"},"02880":{"lat":41.375317,"lng":-71.64393,"city":"Wakefield","state":"RI"},"02881":{"lat":41.482901,"lng":-71.524317,"city":"Kingston","state":"RI"},"02882":{"lat":41.377185,"lng":-71.497793,"city":"Narragansett","state":"RI"},"02883":{"lat":41.375317,"lng":-71.64393,"city":"Peace Dale","state":"RI"},"02885":{"lat":41.727451,"lng":-71.257492,"city":"Warren","state":"RI"},"02886":{"lat":41.70247,"lng":-71.47902,"city":"Warwick","state":"RI"},"02887":{"lat":41.682455,"lng":-71.557732,"city":"Warwick","state":"RI"},"02888":{"lat":41.7473,"lng":-71.411088,"city":"Warwick","state":"RI"},"02889":{"lat":41.689182,"lng":-71.496048,"city":"Warwick","state":"RI"},"02891":{"lat":41.284494,"lng":-71.710708,"city":"Westerly","state":"RI"},"02892":{"lat":41.505764,"lng":-71.62114,"city":"West Kingston","state":"RI"},"02893":{"lat":41.696822,"lng":-71.507304,"city":"West Warwick","state":"RI"},"02894":{"lat":41.45005,"lng":-71.70742,"city":"Wood River Junction","state":"RI"},"02895":{"lat":41.984598,"lng":-71.51939,"city":"Woonsocket","state":"RI"},"02896":{"lat":41.934348,"lng":-71.540506,"city":"North Smithfield","state":"RI"},"02898":{"lat":41.504089,"lng":-71.662954,"city":"Wyoming","state":"RI"},"02901":{"lat":41.82275,"lng":-71.414451,"city":"Providence","state":"RI"},"02902":{"lat":41.81835,"lng":-71.424851,"city":"Providence","state":"RI"},"02903":{"lat":41.819459,"lng":-71.4115,"city":"Providence","state":"RI"},"02904":{"lat":41.85414,"lng":-71.437752,"city":"Providence","state":"RI"},"02905":{"lat":41.803799,"lng":-71.422547,"city":"Providence","state":"RI"},"02906":{"lat":41.8374,"lng":-71.394717,"city":"Providence","state":"RI"},"02907":{"lat":41.797065,"lng":-71.425501,"city":"Providence","state":"RI"},"02908":{"lat":41.837399,"lng":-71.4399,"city":"Providence","state":"RI"},"02909":{"lat":41.820599,"lng":-71.444302,"city":"Providence","state":"RI"},"02910":{"lat":41.7917,"lng":-71.435251,"city":"Cranston","state":"RI"},"02911":{"lat":41.838749,"lng":-71.449202,"city":"North Providence","state":"RI"},"02912":{"lat":41.826737,"lng":-71.397699,"city":"Providence","state":"RI"},"02914":{"lat":41.813429,"lng":-71.363348,"city":"East Providence","state":"RI"},"02915":{"lat":41.7743,"lng":-71.349697,"city":"Riverside","state":"RI"},"02916":{"lat":41.842727,"lng":-71.355798,"city":"Rumford","state":"RI"},"02917":{"lat":41.853899,"lng":-71.497804,"city":"Smithfield","state":"RI"},"02918":{"lat":41.841499,"lng":-71.440352,"city":"Providence","state":"RI"},"02919":{"lat":41.870932,"lng":-71.497604,"city":"Johnston","state":"RI"},"02920":{"lat":41.7693,"lng":-71.471353,"city":"Cranston","state":"RI"},"02921":{"lat":41.76675,"lng":-71.476703,"city":"Cranston","state":"RI"},"02940":{"lat":41.871766,"lng":-71.558518,"city":"Providence","state":"RI"},"03031":{"lat":42.87474,"lng":-71.629365,"city":"Amherst","state":"NH"},"03032":{"lat":42.989151,"lng":-71.343576,"city":"Auburn","state":"NH"},"03033":{"lat":42.847268,"lng":-71.767437,"city":"Brookline","state":"NH"},"03034":{"lat":43.059283,"lng":-71.305437,"city":"Candia","state":"NH"},"03036":{"lat":42.961606,"lng":-71.251021,"city":"Chester","state":"NH"},"03037":{"lat":42.987495,"lng":-71.252719,"city":"Deerfield","state":"NH"},"03038":{"lat":42.950825,"lng":-71.197169,"city":"Derry","state":"NH"},"03040":{"lat":43.005895,"lng":-71.013202,"city":"East Candia","state":"NH"},"03041":{"lat":43.005895,"lng":-71.013202,"city":"East Derry","state":"NH"},"03042":{"lat":43.047595,"lng":-71.084411,"city":"Epping","state":"NH"},"03043":{"lat":42.916233,"lng":-71.816505,"city":"Francestown","state":"NH"},"03044":{"lat":42.992203,"lng":-71.127041,"city":"Fremont","state":"NH"},"03045":{"lat":42.94671,"lng":-71.687633,"city":"Goffstown","state":"NH"},"03046":{"lat":43.1,"lng":-71.6,"city":"Dunbarton","state":"NH"},"03047":{"lat":42.929346,"lng":-71.859087,"city":"Greenfield","state":"NH"},"03048":{"lat":42.875116,"lng":-71.717548,"city":"Greenville","state":"NH"},"03049":{"lat":42.859545,"lng":-71.581313,"city":"Hollis","state":"NH"},"03051":{"lat":42.766426,"lng":-71.61887,"city":"Hudson","state":"NH"},"03052":{"lat":42.886789,"lng":-71.485331,"city":"Litchfield","state":"NH"},"03053":{"lat":42.8712,"lng":-71.387776,"city":"Londonderry","state":"NH"},"03054":{"lat":42.924928,"lng":-71.667508,"city":"Merrimack","state":"NH"},"03055":{"lat":42.848787,"lng":-71.743882,"city":"Milford","state":"NH"},"03057":{"lat":42.850464,"lng":-71.727044,"city":"Mont Vernon","state":"NH"},"03060":{"lat":42.771537,"lng":-71.626336,"city":"Nashua","state":"NH"},"03061":{"lat":42.952124,"lng":-71.653939,"city":"Nashua","state":"NH"},"03062":{"lat":42.860117,"lng":-71.49976,"city":"Nashua","state":"NH"},"03063":{"lat":42.774427,"lng":-71.511111,"city":"Nashua","state":"NH"},"03064":{"lat":42.774237,"lng":-71.628611,"city":"Nashua","state":"NH"},"03070":{"lat":42.903497,"lng":-71.775889,"city":"New Boston","state":"NH"},"03071":{"lat":42.762946,"lng":-71.845164,"city":"New Ipswich","state":"NH"},"03073":{"lat":43.005895,"lng":-71.013202,"city":"North Salem","state":"NH"},"03076":{"lat":42.740651,"lng":-71.318715,"city":"Pelham","state":"NH"},"03077":{"lat":43.05932,"lng":-71.204521,"city":"Raymond","state":"NH"},"03079":{"lat":42.872045,"lng":-71.196195,"city":"Salem","state":"NH"},"03082":{"lat":42.902031,"lng":-71.773947,"city":"Lyndeborough","state":"NH"},"03084":{"lat":42.822275,"lng":-71.860983,"city":"Temple","state":"NH"},"03086":{"lat":42.894022,"lng":-71.730154,"city":"Wilton","state":"NH"},"03087":{"lat":42.892211,"lng":-71.234009,"city":"Windham","state":"NH"},"03101":{"lat":42.988483,"lng":-71.462111,"city":"Manchester","state":"NH"},"03102":{"lat":43.007883,"lng":-71.494561,"city":"Manchester","state":"NH"},"03103":{"lat":42.942463,"lng":-71.463761,"city":"Manchester","state":"NH"},"03104":{"lat":42.897524,"lng":-71.372208,"city":"Manchester","state":"NH"},"03105":{"lat":42.952124,"lng":-71.653939,"city":"Manchester","state":"NH"},"03106":{"lat":43.065097,"lng":-71.443616,"city":"Hooksett","state":"NH"},"03107":{"lat":42.952124,"lng":-71.653939,"city":"Manchester","state":"NH"},"03108":{"lat":42.952124,"lng":-71.653939,"city":"Manchester","state":"NH"},"03109":{"lat":42.970084,"lng":-71.405283,"city":"Manchester","state":"NH"},"03110":{"lat":42.93743,"lng":-71.535515,"city":"Bedford","state":"NH"},"03111":{"lat":42.952124,"lng":-71.653939,"city":"Manchester","state":"NH"},"03215":{"lat":43.930221,"lng":-71.534068,"city":"Waterville Valley","state":"NH"},"03216":{"lat":43.447006,"lng":-71.684093,"city":"Andover","state":"NH"},"03217":{"lat":43.715626,"lng":-71.639896,"city":"Ashland","state":"NH"},"03218":{"lat":43.417369,"lng":-71.373189,"city":"Barnstead","state":"NH"},"03220":{"lat":43.455551,"lng":-71.40709,"city":"Belmont","state":"NH"},"03221":{"lat":43.280961,"lng":-71.792489,"city":"Bradford","state":"NH"},"03222":{"lat":43.70781,"lng":-71.72158,"city":"Bristol","state":"NH"},"03223":{"lat":43.841799,"lng":-71.665223,"city":"Campton","state":"NH"},"03224":{"lat":43.378281,"lng":-71.604226,"city":"Canterbury","state":"NH"},"03225":{"lat":43.386652,"lng":-71.292981,"city":"Center Barnstead","state":"NH"},"03226":{"lat":43.69387,"lng":-71.466212,"city":"Center Harbor","state":"NH"},"03227":{"lat":43.694809,"lng":-71.323953,"city":"Center Sandwich","state":"NH"},"03229":{"lat":43.301308,"lng":-71.812943,"city":"Contoocook","state":"NH"},"03230":{"lat":43.514791,"lng":-71.882094,"city":"Danbury","state":"NH"},"03231":{"lat":43.466172,"lng":-71.736518,"city":"East Andover","state":"NH"},"03232":{"lat":43.967542,"lng":-71.840883,"city":"East Hebron","state":"NH"},"03233":{"lat":43.422706,"lng":-71.944794,"city":"Elkins","state":"NH"},"03234":{"lat":43.340736,"lng":-71.669712,"city":"Epsom","state":"NH"},"03235":{"lat":43.374297,"lng":-71.680021,"city":"Franklin","state":"NH"},"03237":{"lat":43.414064,"lng":-71.384213,"city":"Gilmanton","state":"NH"},"03238":{"lat":43.967542,"lng":-71.840883,"city":"Glencliff","state":"NH"},"03240":{"lat":43.967542,"lng":-71.840883,"city":"Grafton","state":"NH"},"03241":{"lat":43.718268,"lng":-71.889483,"city":"Hebron","state":"NH"},"03242":{"lat":43.180148,"lng":-71.81959,"city":"Henniker","state":"NH"},"03243":{"lat":43.443473,"lng":-71.762631,"city":"Hill","state":"NH"},"03244":{"lat":43.12295,"lng":-71.914287,"city":"Hillsboro","state":"NH"},"03245":{"lat":43.737831,"lng":-71.604406,"city":"Holderness","state":"NH"},"03246":{"lat":43.535461,"lng":-71.426997,"city":"Laconia","state":"NH"},"03247":{"lat":43.588972,"lng":-71.445452,"city":"Laconia","state":"NH"},"03249":{"lat":43.55,"lng":-71.39,"city":"Gilford","state":"NH"},"03251":{"lat":44.049183,"lng":-71.653505,"city":"Lincoln","state":"NH"},"03252":{"lat":43.468562,"lng":-71.537145,"city":"Lochmere","state":"NH"},"03253":{"lat":43.592239,"lng":-71.517479,"city":"Meredith","state":"NH"},"03254":{"lat":43.728235,"lng":-71.335248,"city":"Moultonborough","state":"NH"},"03255":{"lat":43.321723,"lng":-72.01184,"city":"Newbury","state":"NH"},"03256":{"lat":43.603288,"lng":-71.634674,"city":"New Hampton","state":"NH"},"03257":{"lat":43.301663,"lng":-71.733643,"city":"New London","state":"NH"},"03258":{"lat":43.25,"lng":-71.39,"city":"Chichester","state":"NH"},"03259":{"lat":43.85971,"lng":-71.37719,"city":"North Sandwich","state":"NH"},"03260":{"lat":43.365345,"lng":-71.934059,"city":"North Sutton","state":"NH"},"03261":{"lat":43.208676,"lng":-71.202568,"city":"Northwood","state":"NH"},"03262":{"lat":44.035391,"lng":-71.686326,"city":"North Woodstock","state":"NH"},"03263":{"lat":43.297834,"lng":-71.343707,"city":"Pittsfield","state":"NH"},"03264":{"lat":43.710919,"lng":-71.694017,"city":"Plymouth","state":"NH"},"03266":{"lat":43.752475,"lng":-71.788434,"city":"Rumney","state":"NH"},"03268":{"lat":43.361756,"lng":-71.558817,"city":"Salisbury","state":"NH"},"03269":{"lat":43.50178,"lng":-71.514248,"city":"Sanbornton","state":"NH"},"03272":{"lat":43.310279,"lng":-71.662928,"city":"South Newbury","state":"NH"},"03273":{"lat":43.304205,"lng":-71.928867,"city":"South Sutton","state":"NH"},"03274":{"lat":43.967542,"lng":-71.840883,"city":"Stinson Lake","state":"NH"},"03275":{"lat":43.286382,"lng":-71.599047,"city":"Suncook","state":"NH"},"03276":{"lat":43.536056,"lng":-71.49166,"city":"Tilton","state":"NH"},"03278":{"lat":43.310858,"lng":-71.842299,"city":"Warner","state":"NH"},"03279":{"lat":43.967542,"lng":-71.840883,"city":"Warren","state":"NH"},"03280":{"lat":43.17229,"lng":-72.100689,"city":"Washington","state":"NH"},"03281":{"lat":43.084176,"lng":-71.762578,"city":"Weare","state":"NH"},"03282":{"lat":43.967542,"lng":-71.840883,"city":"Wentworth","state":"NH"},"03284":{"lat":43.493812,"lng":-72.047018,"city":"Springfield","state":"NH"},"03287":{"lat":43.44853,"lng":-71.915826,"city":"Wilmot","state":"NH"},"03289":{"lat":43.496372,"lng":-71.519728,"city":"Winnisquam","state":"NH"},"03290":{"lat":43.124825,"lng":-71.125879,"city":"Nottingham","state":"NH"},"03291":{"lat":43.182251,"lng":-71.139551,"city":"West Nottingham","state":"NH"},"03293":{"lat":43.967542,"lng":-71.840883,"city":"Woodstock","state":"NH"},"03298":{"lat":43.524872,"lng":-71.445841,"city":"Tilton","state":"NH"},"03299":{"lat":43.524872,"lng":-71.445841,"city":"Tilton","state":"NH"},"03301":{"lat":43.230314,"lng":-71.536101,"city":"Concord","state":"NH"},"03302":{"lat":43.310279,"lng":-71.662928,"city":"Concord","state":"NH"},"03303":{"lat":43.281654,"lng":-71.659523,"city":"Concord","state":"NH"},"03304":{"lat":43.128256,"lng":-71.544599,"city":"Bow","state":"NH"},"03305":{"lat":43.2134,"lng":-71.517151,"city":"Concord","state":"NH"},"03307":{"lat":43.319339,"lng":-71.467006,"city":"Loudon","state":"NH"},"03431":{"lat":42.903656,"lng":-72.248052,"city":"Keene","state":"NH"},"03435":{"lat":42.947098,"lng":-72.243029,"city":"Keene","state":"NH"},"03440":{"lat":43.044535,"lng":-71.971353,"city":"Antrim","state":"NH"},"03441":{"lat":42.777271,"lng":-72.444106,"city":"Ashuelot","state":"NH"},"03442":{"lat":43.002936,"lng":-71.908029,"city":"Bennington","state":"NH"},"03443":{"lat":42.883948,"lng":-72.454813,"city":"Chesterfield","state":"NH"},"03444":{"lat":42.889124,"lng":-72.018993,"city":"Dublin","state":"NH"},"03445":{"lat":42.998225,"lng":-72.201903,"city":"Sullivan","state":"NH"},"03446":{"lat":42.841079,"lng":-72.330145,"city":"Swanzey","state":"NH"},"03447":{"lat":42.881769,"lng":-72.248026,"city":"Fitzwilliam","state":"NH"},"03448":{"lat":42.936786,"lng":-72.210953,"city":"Gilsum","state":"NH"},"03449":{"lat":42.93924,"lng":-71.983797,"city":"Hancock","state":"NH"},"03450":{"lat":42.884548,"lng":-72.102634,"city":"Harrisville","state":"NH"},"03451":{"lat":42.894151,"lng":-72.280099,"city":"Hinsdale","state":"NH"},"03452":{"lat":42.821969,"lng":-72.082559,"city":"Jaffrey","state":"NH"},"03455":{"lat":42.88825,"lng":-72.279638,"city":"Marlborough","state":"NH"},"03456":{"lat":43.119294,"lng":-72.202564,"city":"Marlow","state":"NH"},"03457":{"lat":42.896623,"lng":-72.091677,"city":"Nelson","state":"NH"},"03458":{"lat":42.956433,"lng":-71.9372,"city":"Peterborough","state":"NH"},"03461":{"lat":42.76509,"lng":-72.00912,"city":"Rindge","state":"NH"},"03462":{"lat":42.870716,"lng":-72.239432,"city":"Spofford","state":"NH"},"03464":{"lat":42.95478,"lng":-72.102454,"city":"Stoddard","state":"NH"},"03465":{"lat":42.843617,"lng":-72.279814,"city":"Troy","state":"NH"},"03466":{"lat":42.858419,"lng":-72.432202,"city":"West Chesterfield","state":"NH"},"03467":{"lat":42.973867,"lng":-72.44256,"city":"Westmoreland","state":"NH"},"03468":{"lat":42.890804,"lng":-71.933396,"city":"West Peterborough","state":"NH"},"03469":{"lat":42.87341,"lng":-72.31509,"city":"West Swanzey","state":"NH"},"03470":{"lat":42.895797,"lng":-72.274928,"city":"Winchester","state":"NH"},"03561":{"lat":44.335289,"lng":-71.877638,"city":"Littleton","state":"NH"},"03570":{"lat":44.512344,"lng":-71.194226,"city":"Berlin","state":"NH"},"03574":{"lat":44.30632,"lng":-71.728049,"city":"Bethlehem","state":"NH"},"03575":{"lat":44.695648,"lng":-71.387387,"city":"Bretton Woods","state":"NH"},"03576":{"lat":44.902731,"lng":-71.500809,"city":"Colebrook","state":"NH"},"03579":{"lat":44.695648,"lng":-71.387387,"city":"Errol","state":"NH"},"03580":{"lat":44.212814,"lng":-71.737162,"city":"Franconia","state":"NH"},"03581":{"lat":44.404848,"lng":-71.154758,"city":"Gorham","state":"NH"},"03582":{"lat":44.75096,"lng":-71.422453,"city":"Groveton","state":"NH"},"03583":{"lat":44.695648,"lng":-71.387387,"city":"Jefferson","state":"NH"},"03584":{"lat":44.476575,"lng":-71.561225,"city":"Lancaster","state":"NH"},"03585":{"lat":44.245004,"lng":-71.888882,"city":"Lisbon","state":"NH"},"03586":{"lat":44.21,"lng":-71.79,"city":"Sugar Hill","state":"NH"},"03587":{"lat":44.695648,"lng":-71.387387,"city":"Meadows","state":"NH"},"03588":{"lat":44.56532,"lng":-71.218672,"city":"Milan","state":"NH"},"03589":{"lat":44.695648,"lng":-71.387387,"city":"Mount Washington","state":"NH"},"03590":{"lat":44.695648,"lng":-71.387387,"city":"North Stratford","state":"NH"},"03592":{"lat":44.695648,"lng":-71.387387,"city":"Pittsburg","state":"NH"},"03593":{"lat":44.37,"lng":-71.28,"city":"Randolph","state":"NH"},"03595":{"lat":44.26895,"lng":-71.547061,"city":"Twin Mountain","state":"NH"},"03597":{"lat":44.695648,"lng":-71.387387,"city":"West Stewartstown","state":"NH"},"03598":{"lat":44.363681,"lng":-71.610189,"city":"Whitefield","state":"NH"},"03601":{"lat":43.195982,"lng":-72.300075,"city":"Acworth","state":"NH"},"03602":{"lat":43.134412,"lng":-72.310623,"city":"Alstead","state":"NH"},"03603":{"lat":43.268117,"lng":-72.370222,"city":"Charlestown","state":"NH"},"03604":{"lat":42.947098,"lng":-72.243029,"city":"Drewsville","state":"NH"},"03605":{"lat":43.213615,"lng":-72.196758,"city":"Lempster","state":"NH"},"03607":{"lat":43.364504,"lng":-72.193966,"city":"South Acworth","state":"NH"},"03608":{"lat":43.072239,"lng":-72.390121,"city":"Walpole","state":"NH"},"03609":{"lat":43.138018,"lng":-72.407236,"city":"North Walpole","state":"NH"},"03740":{"lat":44.114163,"lng":-71.948852,"city":"Bath","state":"NH"},"03741":{"lat":43.63123,"lng":-72.057312,"city":"Canaan","state":"NH"},"03743":{"lat":43.415993,"lng":-72.209819,"city":"Claremont","state":"NH"},"03745":{"lat":43.462156,"lng":-72.337149,"city":"Cornish","state":"NH"},"03746":{"lat":43.364504,"lng":-72.193966,"city":"Cornish Flat","state":"NH"},"03748":{"lat":43.630906,"lng":-72.116603,"city":"Enfield","state":"NH"},"03749":{"lat":43.579573,"lng":-72.08541,"city":"Enfield Center","state":"NH"},"03750":{"lat":43.697999,"lng":-72.215182,"city":"Etna","state":"NH"},"03751":{"lat":43.44872,"lng":-72.063675,"city":"Georges Mills","state":"NH"},"03752":{"lat":43.417705,"lng":-72.196718,"city":"Goshen","state":"NH"},"03753":{"lat":43.463101,"lng":-72.218445,"city":"Grantham","state":"NH"},"03754":{"lat":43.365618,"lng":-72.125562,"city":"Guild","state":"NH"},"03755":{"lat":43.861077,"lng":-72.120314,"city":"Hanover","state":"NH"},"03756":{"lat":43.967542,"lng":-71.840883,"city":"Lebanon","state":"NH"},"03765":{"lat":44.037549,"lng":-72.046692,"city":"Haverhill","state":"NH"},"03766":{"lat":43.637148,"lng":-72.23546,"city":"Lebanon","state":"NH"},"03768":{"lat":43.801656,"lng":-72.130495,"city":"Lyme","state":"NH"},"03769":{"lat":43.786267,"lng":-72.120468,"city":"Lyme Center","state":"NH"},"03770":{"lat":43.421675,"lng":-72.255638,"city":"Meriden","state":"NH"},"03771":{"lat":44.268612,"lng":-72.015317,"city":"Monroe","state":"NH"},"03773":{"lat":43.390485,"lng":-72.199659,"city":"Newport","state":"NH"},"03774":{"lat":44.077803,"lng":-72.014608,"city":"North Haverhill","state":"NH"},"03777":{"lat":43.927348,"lng":-72.10987,"city":"Orford","state":"NH"},"03779":{"lat":43.948343,"lng":-72.062132,"city":"Piermont","state":"NH"},"03780":{"lat":43.967542,"lng":-71.840883,"city":"Pike","state":"NH"},"03781":{"lat":43.432999,"lng":-72.282596,"city":"Plainfield","state":"NH"},"03782":{"lat":43.426838,"lng":-72.15471,"city":"Sunapee","state":"NH"},"03784":{"lat":43.644367,"lng":-72.2348,"city":"West Lebanon","state":"NH"},"03785":{"lat":43.948644,"lng":-72.080708,"city":"Woodsville","state":"NH"},"03801":{"lat":43.009222,"lng":-70.950742,"city":"Portsmouth","state":"NH"},"03802":{"lat":43.005895,"lng":-71.013202,"city":"Portsmouth","state":"NH"},"03803":{"lat":42.92703,"lng":-71.444752,"city":"Portsmouth","state":"NH"},"03804":{"lat":43.005895,"lng":-71.013202,"city":"Portsmouth","state":"NH"},"03805":{"lat":43.285282,"lng":-70.930684,"city":"Rollinsford","state":"NH"},"03809":{"lat":43.462586,"lng":-71.222455,"city":"Alton","state":"NH"},"03810":{"lat":43.502514,"lng":-71.277387,"city":"Alton Bay","state":"NH"},"03811":{"lat":42.878366,"lng":-71.159035,"city":"Atkinson","state":"NH"},"03812":{"lat":43.883871,"lng":-71.257726,"city":"Bartlett","state":"NH"},"03813":{"lat":43.797391,"lng":-71.145357,"city":"Center Conway","state":"NH"},"03814":{"lat":43.762429,"lng":-71.122689,"city":"Center Ossipee","state":"NH"},"03815":{"lat":43.253739,"lng":-71.109825,"city":"Center Strafford","state":"NH"},"03816":{"lat":43.660752,"lng":-71.274458,"city":"Center Tuftonboro","state":"NH"},"03817":{"lat":43.74858,"lng":-71.089796,"city":"Chocorua","state":"NH"},"03818":{"lat":43.78892,"lng":-71.10261,"city":"Conway","state":"NH"},"03819":{"lat":42.926725,"lng":-71.082299,"city":"Danville","state":"NH"},"03820":{"lat":43.297309,"lng":-70.992042,"city":"Dover","state":"NH"},"03821":{"lat":43.326734,"lng":-71.028427,"city":"Dover","state":"NH"},"03822":{"lat":43.326734,"lng":-71.028427,"city":"Dover","state":"NH"},"03823":{"lat":43.16,"lng":-70.93,"city":"Madbury","state":"NH"},"03824":{"lat":43.165772,"lng":-70.962843,"city":"Durham","state":"NH"},"03825":{"lat":43.29779,"lng":-71.097423,"city":"Barrington","state":"NH"},"03826":{"lat":42.893629,"lng":-71.14269,"city":"East Hampstead","state":"NH"},"03827":{"lat":42.912071,"lng":-71.054245,"city":"East Kingston","state":"NH"},"03830":{"lat":43.635065,"lng":-71.009368,"city":"East Wakefield","state":"NH"},"03832":{"lat":43.883871,"lng":-71.257726,"city":"Eaton Center","state":"NH"},"03833":{"lat":42.951274,"lng":-70.922262,"city":"Exeter","state":"NH"},"03835":{"lat":43.306172,"lng":-71.003435,"city":"Farmington","state":"NH"},"03836":{"lat":43.823704,"lng":-71.093154,"city":"Freedom","state":"NH"},"03837":{"lat":43.446567,"lng":-71.299456,"city":"Gilmanton Iron Works","state":"NH"},"03838":{"lat":44.050111,"lng":-71.265371,"city":"Glen","state":"NH"},"03839":{"lat":43.309966,"lng":-70.998256,"city":"Rochester","state":"NH"},"03840":{"lat":43.038634,"lng":-70.809157,"city":"Greenland","state":"NH"},"03841":{"lat":42.877438,"lng":-71.139098,"city":"Hampstead","state":"NH"},"03842":{"lat":42.917389,"lng":-70.95095,"city":"Hampton","state":"NH"},"03843":{"lat":43.005895,"lng":-71.013202,"city":"Hampton","state":"NH"},"03844":{"lat":42.891888,"lng":-70.982601,"city":"Hampton Falls","state":"NH"},"03845":{"lat":44.082716,"lng":-71.134348,"city":"Intervale","state":"NH"},"03846":{"lat":43.883871,"lng":-71.257726,"city":"Jackson","state":"NH"},"03847":{"lat":43.883871,"lng":-71.257726,"city":"Kearsarge","state":"NH"},"03848":{"lat":42.909731,"lng":-71.102933,"city":"Kingston","state":"NH"},"03849":{"lat":43.902311,"lng":-71.124612,"city":"Madison","state":"NH"},"03850":{"lat":43.707657,"lng":-71.301681,"city":"Melvin Village","state":"NH"},"03851":{"lat":43.422942,"lng":-71.011369,"city":"Milton","state":"NH"},"03852":{"lat":43.326734,"lng":-71.028427,"city":"Milton Mills","state":"NH"},"03853":{"lat":43.646319,"lng":-71.282068,"city":"Mirror Lake","state":"NH"},"03854":{"lat":43.064938,"lng":-70.721596,"city":"New Castle","state":"NH"},"03855":{"lat":43.459503,"lng":-71.119055,"city":"New Durham","state":"NH"},"03856":{"lat":43.037363,"lng":-70.978211,"city":"Newfields","state":"NH"},"03857":{"lat":42.979021,"lng":-70.891642,"city":"Newmarket","state":"NH"},"03858":{"lat":42.937092,"lng":-71.006898,"city":"Newton","state":"NH"},"03859":{"lat":42.861915,"lng":-71.04002,"city":"Newton Junction","state":"NH"},"03860":{"lat":43.784643,"lng":-71.10263,"city":"North Conway","state":"NH"},"03862":{"lat":43.00027,"lng":-70.913947,"city":"North Hampton","state":"NH"},"03864":{"lat":43.667352,"lng":-71.153338,"city":"Ossipee","state":"NH"},"03865":{"lat":42.937838,"lng":-70.926206,"city":"Plaistow","state":"NH"},"03866":{"lat":43.41176,"lng":-71.027303,"city":"Rochester","state":"NH"},"03867":{"lat":43.326831,"lng":-70.993148,"city":"Rochester","state":"NH"},"03868":{"lat":43.349689,"lng":-70.945161,"city":"Rochester","state":"NH"},"03869":{"lat":43.16136,"lng":-70.942666,"city":"Rollinsford","state":"NH"},"03870":{"lat":43.010939,"lng":-70.764813,"city":"Rye","state":"NH"},"03871":{"lat":42.980639,"lng":-70.771896,"city":"Rye Beach","state":"NH"},"03872":{"lat":43.570694,"lng":-71.079427,"city":"Sanbornville","state":"NH"},"03873":{"lat":42.922666,"lng":-71.174262,"city":"Sandown","state":"NH"},"03874":{"lat":42.964415,"lng":-70.819897,"city":"Seabrook","state":"NH"},"03875":{"lat":43.855269,"lng":-71.176182,"city":"Silver Lake","state":"NH"},"03878":{"lat":43.229489,"lng":-70.958264,"city":"Somersworth","state":"NH"},"03882":{"lat":43.704702,"lng":-70.990155,"city":"Effingham","state":"NH"},"03883":{"lat":43.883871,"lng":-71.257726,"city":"South Tamworth","state":"NH"},"03884":{"lat":43.256871,"lng":-71.171886,"city":"Strafford","state":"NH"},"03885":{"lat":43.01295,"lng":-70.882134,"city":"Stratham","state":"NH"},"03886":{"lat":43.647527,"lng":-71.277779,"city":"Tamworth","state":"NH"},"03887":{"lat":43.459999,"lng":-71.040842,"city":"Union","state":"NH"},"03890":{"lat":43.811782,"lng":-71.194586,"city":"West Ossipee","state":"NH"},"03894":{"lat":43.667102,"lng":-71.183597,"city":"Wolfeboro","state":"NH"},"03896":{"lat":43.589157,"lng":-71.218894,"city":"Wolfeboro Falls","state":"NH"},"03897":{"lat":43.883871,"lng":-71.257726,"city":"Wonalancet","state":"NH"},"03901":{"lat":43.279539,"lng":-70.740013,"city":"Berwick","state":"ME"},"03902":{"lat":43.245785,"lng":-70.664719,"city":"Cape Neddick","state":"ME"},"03903":{"lat":43.182729,"lng":-70.745759,"city":"Eliot","state":"ME"},"03904":{"lat":43.191554,"lng":-70.684607,"city":"Kittery","state":"ME"},"03905":{"lat":43.094746,"lng":-70.68928,"city":"Kittery Point","state":"ME"},"03906":{"lat":43.340626,"lng":-70.753996,"city":"North Berwick","state":"ME"},"03907":{"lat":43.350806,"lng":-70.731498,"city":"Ogunquit","state":"ME"},"03908":{"lat":43.227549,"lng":-70.71171,"city":"South Berwick","state":"ME"},"03909":{"lat":43.237891,"lng":-70.69099,"city":"York","state":"ME"},"03910":{"lat":43.211674,"lng":-70.73201,"city":"York Beach","state":"ME"},"03911":{"lat":43.155465,"lng":-70.635702,"city":"York Harbor","state":"ME"},"04001":{"lat":43.520752,"lng":-70.804588,"city":"Acton","state":"ME"},"04002":{"lat":43.467224,"lng":-70.738992,"city":"Alfred","state":"ME"},"04003":{"lat":43.735867,"lng":-69.995456,"city":"Bailey Island","state":"ME"},"04004":{"lat":43.365658,"lng":-70.604379,"city":"Bar Mills","state":"ME"},"04005":{"lat":43.532376,"lng":-70.651859,"city":"Biddeford","state":"ME"},"04006":{"lat":43.436049,"lng":-70.3598,"city":"Biddeford Pool","state":"ME"},"04007":{"lat":43.45813,"lng":-70.505301,"city":"Biddeford","state":"ME"},"04008":{"lat":44.023162,"lng":-69.875816,"city":"Bowdoinham","state":"ME"},"04009":{"lat":43.939828,"lng":-70.747431,"city":"Bridgton","state":"ME"},"04010":{"lat":44.163033,"lng":-70.739823,"city":"Brownfield","state":"ME"},"04011":{"lat":43.935634,"lng":-70.340652,"city":"Brunswick","state":"ME"},"04013":{"lat":44.408078,"lng":-70.470703,"city":"Bustins Island","state":"ME"},"04014":{"lat":43.365658,"lng":-70.604379,"city":"Cape Porpoise","state":"ME"},"04015":{"lat":43.962115,"lng":-70.524465,"city":"Casco","state":"ME"},"04016":{"lat":44.180965,"lng":-70.891727,"city":"Center Lovell","state":"ME"},"04017":{"lat":43.727806,"lng":-70.120437,"city":"Chebeague Island","state":"ME"},"04019":{"lat":44.408078,"lng":-70.470703,"city":"Cliff Island","state":"ME"},"04020":{"lat":43.77397,"lng":-70.791727,"city":"Cornish","state":"ME"},"04021":{"lat":43.812676,"lng":-70.450494,"city":"Cumberland Center","state":"ME"},"04022":{"lat":44.566156,"lng":-70.661557,"city":"Denmark","state":"ME"},"04024":{"lat":43.844826,"lng":-70.688656,"city":"East Baldwin","state":"ME"},"04027":{"lat":43.459708,"lng":-70.91519,"city":"Lebanon","state":"ME"},"04028":{"lat":43.732391,"lng":-70.845114,"city":"East Parsonfield","state":"ME"},"04029":{"lat":43.867223,"lng":-70.547159,"city":"Sebago","state":"ME"},"04030":{"lat":43.596921,"lng":-70.689681,"city":"East Waterboro","state":"ME"},"04032":{"lat":43.864477,"lng":-70.097543,"city":"Freeport","state":"ME"},"04033":{"lat":44.408078,"lng":-70.470703,"city":"Freeport","state":"ME"},"04034":{"lat":44.408078,"lng":-70.470703,"city":"Freeport","state":"ME"},"04037":{"lat":44.044292,"lng":-70.964418,"city":"Fryeburg","state":"ME"},"04038":{"lat":43.803689,"lng":-70.355188,"city":"Gorham","state":"ME"},"04039":{"lat":43.878567,"lng":-70.328889,"city":"Gray","state":"ME"},"04040":{"lat":43.992681,"lng":-70.357119,"city":"Harrison","state":"ME"},"04041":{"lat":43.879628,"lng":-70.826188,"city":"Hiram","state":"ME"},"04042":{"lat":43.584232,"lng":-70.624391,"city":"Hollis Center","state":"ME"},"04043":{"lat":43.494679,"lng":-70.54921,"city":"Kennebunk","state":"ME"},"04046":{"lat":43.534125,"lng":-70.607475,"city":"Kennebunkport","state":"ME"},"04047":{"lat":43.744987,"lng":-70.909196,"city":"Parsonsfield","state":"ME"},"04048":{"lat":43.661222,"lng":-70.83448,"city":"Limerick","state":"ME"},"04049":{"lat":43.703854,"lng":-70.748668,"city":"Limington","state":"ME"},"04050":{"lat":44.408078,"lng":-70.470703,"city":"Long Island","state":"ME"},"04051":{"lat":44.139839,"lng":-70.886741,"city":"Lovell","state":"ME"},"04053":{"lat":44.408078,"lng":-70.470703,"city":"Merepoint","state":"ME"},"04054":{"lat":43.276341,"lng":-70.597752,"city":"Moody","state":"ME"},"04055":{"lat":43.957208,"lng":-70.639546,"city":"Naples","state":"ME"},"04056":{"lat":43.658378,"lng":-70.868871,"city":"Newfield","state":"ME"},"04057":{"lat":44.408078,"lng":-70.470703,"city":"North Bridgton","state":"ME"},"04061":{"lat":43.54209,"lng":-70.710773,"city":"North Waterboro","state":"ME"},"04062":{"lat":43.911381,"lng":-70.396652,"city":"Windham","state":"ME"},"04063":{"lat":43.504889,"lng":-70.385703,"city":"Ocean Park","state":"ME"},"04064":{"lat":43.411837,"lng":-70.469526,"city":"Old Orchard Beach","state":"ME"},"04066":{"lat":43.779982,"lng":-69.975477,"city":"Orrs Island","state":"ME"},"04068":{"lat":43.848322,"lng":-70.935379,"city":"Porter","state":"ME"},"04069":{"lat":43.894983,"lng":-70.189159,"city":"Pownal","state":"ME"},"04070":{"lat":43.576983,"lng":-70.273642,"city":"Scarborough","state":"ME"},"04071":{"lat":43.906227,"lng":-70.465928,"city":"Raymond","state":"ME"},"04072":{"lat":43.541241,"lng":-70.666387,"city":"Saco","state":"ME"},"04073":{"lat":43.576196,"lng":-70.630569,"city":"Sanford","state":"ME"},"04074":{"lat":43.724562,"lng":-70.375162,"city":"Scarborough","state":"ME"},"04075":{"lat":43.796053,"lng":-70.552183,"city":"Sebago Lake","state":"ME"},"04076":{"lat":43.510275,"lng":-70.77159,"city":"Shapleigh","state":"ME"},"04077":{"lat":43.910029,"lng":-70.524524,"city":"South Casco","state":"ME"},"04078":{"lat":43.820774,"lng":-70.120781,"city":"South Freeport","state":"ME"},"04079":{"lat":43.78105,"lng":-69.995537,"city":"Harpswell","state":"ME"},"04081":{"lat":44.566156,"lng":-70.661557,"city":"South Waterford","state":"ME"},"04082":{"lat":44.408078,"lng":-70.470703,"city":"South Windham","state":"ME"},"04083":{"lat":43.465941,"lng":-70.748295,"city":"Springvale","state":"ME"},"04084":{"lat":43.804454,"lng":-70.554905,"city":"Standish","state":"ME"},"04085":{"lat":43.771934,"lng":-70.639561,"city":"Steep Falls","state":"ME"},"04086":{"lat":43.981404,"lng":-69.937793,"city":"Topsham","state":"ME"},"04087":{"lat":43.573684,"lng":-70.749181,"city":"Waterboro","state":"ME"},"04088":{"lat":44.566156,"lng":-70.661557,"city":"Waterford","state":"ME"},"04090":{"lat":43.429659,"lng":-70.671274,"city":"Wells","state":"ME"},"04091":{"lat":44.408078,"lng":-70.470703,"city":"West Baldwin","state":"ME"},"04092":{"lat":43.855116,"lng":-70.568534,"city":"Westbrook","state":"ME"},"04093":{"lat":43.653805,"lng":-70.622959,"city":"Buxton","state":"ME"},"04094":{"lat":43.406101,"lng":-70.573255,"city":"West Kennebunk","state":"ME"},"04095":{"lat":43.601018,"lng":-70.902676,"city":"West Newfield","state":"ME"},"04096":{"lat":43.798227,"lng":-70.171979,"city":"Yarmouth","state":"ME"},"04097":{"lat":43.837951,"lng":-70.200114,"city":"North Yarmouth","state":"ME"},"04098":{"lat":44.408078,"lng":-70.470703,"city":"Westbrook","state":"ME"},"04101":{"lat":43.658784,"lng":-70.262393,"city":"Portland","state":"ME"},"04102":{"lat":43.74275,"lng":-70.44338,"city":"Portland","state":"ME"},"04103":{"lat":43.68826,"lng":-70.289844,"city":"Portland","state":"ME"},"04104":{"lat":43.84649,"lng":-70.464839,"city":"Portland","state":"ME"},"04105":{"lat":43.73928,"lng":-70.270696,"city":"Falmouth","state":"ME"},"04106":{"lat":43.627364,"lng":-70.289248,"city":"South Portland","state":"ME"},"04107":{"lat":43.595512,"lng":-70.239559,"city":"Cape Elizabeth","state":"ME"},"04108":{"lat":43.662809,"lng":-70.188442,"city":"Peaks Island","state":"ME"},"04109":{"lat":43.678339,"lng":-70.198742,"city":"Portland","state":"ME"},"04110":{"lat":43.759021,"lng":-70.199307,"city":"Cumberland Foreside","state":"ME"},"04112":{"lat":44.408078,"lng":-70.470703,"city":"Portland","state":"ME"},"04116":{"lat":44.408078,"lng":-70.470703,"city":"South Portland","state":"ME"},"04122":{"lat":44.408078,"lng":-70.470703,"city":"Portland","state":"ME"},"04123":{"lat":44.408078,"lng":-70.470703,"city":"Portland","state":"ME"},"04124":{"lat":44.408078,"lng":-70.470703,"city":"Portland","state":"ME"},"04210":{"lat":44.087422,"lng":-70.243848,"city":"Auburn","state":"ME"},"04211":{"lat":44.197009,"lng":-70.239485,"city":"Auburn","state":"ME"},"04212":{"lat":44.197009,"lng":-70.239485,"city":"Auburn","state":"ME"},"04216":{"lat":44.56816,"lng":-70.704051,"city":"Andover","state":"ME"},"04217":{"lat":44.428414,"lng":-70.770035,"city":"Bethel","state":"ME"},"04219":{"lat":44.265009,"lng":-70.587095,"city":"Bryant Pond","state":"ME"},"04220":{"lat":44.326165,"lng":-70.381112,"city":"Buckfield","state":"ME"},"04221":{"lat":44.38575,"lng":-70.311314,"city":"Canton","state":"ME"},"04222":{"lat":43.968378,"lng":-70.184618,"city":"Durham","state":"ME"},"04223":{"lat":44.023873,"lng":-70.285748,"city":"Danville","state":"ME"},"04224":{"lat":44.553968,"lng":-70.422541,"city":"Dixfield","state":"ME"},"04225":{"lat":44.602705,"lng":-70.22651,"city":"Dryden","state":"ME"},"04226":{"lat":44.555618,"lng":-70.691857,"city":"East Andover","state":"ME"},"04227":{"lat":44.579135,"lng":-70.326337,"city":"East Dixfield","state":"ME"},"04228":{"lat":44.197009,"lng":-70.239485,"city":"East Livermore","state":"ME"},"04230":{"lat":44.062672,"lng":-70.327049,"city":"East Poland","state":"ME"},"04231":{"lat":44.313283,"lng":-70.861797,"city":"Stoneham","state":"ME"},"04234":{"lat":44.617509,"lng":-70.182012,"city":"East Wilton","state":"ME"},"04236":{"lat":44.189655,"lng":-70.136683,"city":"Greene","state":"ME"},"04237":{"lat":44.494347,"lng":-70.735691,"city":"Hanover","state":"ME"},"04238":{"lat":44.22564,"lng":-70.372831,"city":"Hebron","state":"ME"},"04239":{"lat":44.541508,"lng":-70.208556,"city":"Jay","state":"ME"},"04240":{"lat":44.086323,"lng":-70.169297,"city":"Lewiston","state":"ME"},"04241":{"lat":44.197009,"lng":-70.239485,"city":"Lewiston","state":"ME"},"04243":{"lat":44.197009,"lng":-70.239485,"city":"Lewiston","state":"ME"},"04250":{"lat":44.033026,"lng":-70.101247,"city":"Lisbon","state":"ME"},"04252":{"lat":44.032476,"lng":-70.068046,"city":"Lisbon Falls","state":"ME"},"04253":{"lat":44.297416,"lng":-70.189139,"city":"Livermore","state":"ME"},"04254":{"lat":44.242189,"lng":-70.188508,"city":"Livermore Falls","state":"ME"},"04255":{"lat":44.401595,"lng":-70.708774,"city":"Greenwood","state":"ME"},"04256":{"lat":44.079644,"lng":-70.272624,"city":"Mechanic Falls","state":"ME"},"04257":{"lat":44.570265,"lng":-70.516131,"city":"Mexico","state":"ME"},"04258":{"lat":44.146121,"lng":-70.339859,"city":"Minot","state":"ME"},"04259":{"lat":44.349166,"lng":-69.870181,"city":"Monmouth","state":"ME"},"04260":{"lat":43.967474,"lng":-70.299687,"city":"New Gloucester","state":"ME"},"04261":{"lat":44.689526,"lng":-71.011246,"city":"Newry","state":"ME"},"04262":{"lat":45.063384,"lng":-70.381639,"city":"North Jay","state":"ME"},"04263":{"lat":44.292089,"lng":-70.135366,"city":"Leeds","state":"ME"},"04265":{"lat":44.303359,"lng":-70.037848,"city":"North Monmouth","state":"ME"},"04266":{"lat":44.357987,"lng":-70.255783,"city":"North Turner","state":"ME"},"04267":{"lat":44.566156,"lng":-70.661557,"city":"North Waterford","state":"ME"},"04268":{"lat":44.280503,"lng":-70.691576,"city":"Norway","state":"ME"},"04270":{"lat":44.284385,"lng":-70.507791,"city":"Oxford","state":"ME"},"04271":{"lat":44.264111,"lng":-70.498513,"city":"Paris","state":"ME"},"04274":{"lat":44.047435,"lng":-70.389923,"city":"Poland","state":"ME"},"04275":{"lat":44.566156,"lng":-70.661557,"city":"Roxbury","state":"ME"},"04276":{"lat":44.523556,"lng":-70.638174,"city":"Rumford","state":"ME"},"04278":{"lat":44.377031,"lng":-70.568041,"city":"Rumford Center","state":"ME"},"04280":{"lat":44.126723,"lng":-70.126922,"city":"Sabattus","state":"ME"},"04281":{"lat":44.353052,"lng":-70.607841,"city":"South Paris","state":"ME"},"04282":{"lat":44.265473,"lng":-70.254155,"city":"Turner","state":"ME"},"04283":{"lat":44.197009,"lng":-70.239485,"city":"Turner Center","state":"ME"},"04284":{"lat":44.359835,"lng":-70.074555,"city":"Wayne","state":"ME"},"04285":{"lat":45.063384,"lng":-70.381639,"city":"Weld","state":"ME"},"04286":{"lat":44.40205,"lng":-70.860094,"city":"West Bethel","state":"ME"},"04287":{"lat":44.057514,"lng":-69.965553,"city":"Bowdoin","state":"ME"},"04288":{"lat":44.197009,"lng":-70.239485,"city":"West Minot","state":"ME"},"04289":{"lat":44.340438,"lng":-70.543265,"city":"West Paris","state":"ME"},"04290":{"lat":44.477183,"lng":-70.436722,"city":"Peru","state":"ME"},"04291":{"lat":44.040857,"lng":-70.453006,"city":"West Poland","state":"ME"},"04292":{"lat":44.3189,"lng":-70.477506,"city":"Sumner","state":"ME"},"04294":{"lat":44.618873,"lng":-70.245935,"city":"Wilton","state":"ME"},"04330":{"lat":44.351642,"lng":-69.803773,"city":"Augusta","state":"ME"},"04332":{"lat":44.414056,"lng":-69.751913,"city":"Augusta","state":"ME"},"04333":{"lat":44.414056,"lng":-69.751913,"city":"Augusta","state":"ME"},"04336":{"lat":44.315693,"lng":-69.818009,"city":"Augusta","state":"ME"},"04338":{"lat":44.414056,"lng":-69.751913,"city":"Augusta","state":"ME"},"04341":{"lat":44.258771,"lng":-69.551024,"city":"Coopers Mills","state":"ME"},"04342":{"lat":44.077448,"lng":-69.738418,"city":"Dresden","state":"ME"},"04343":{"lat":44.414056,"lng":-69.751913,"city":"East Winthrop","state":"ME"},"04344":{"lat":44.256614,"lng":-69.797105,"city":"Farmingdale","state":"ME"},"04345":{"lat":44.296652,"lng":-69.796909,"city":"Gardiner","state":"ME"},"04346":{"lat":44.269959,"lng":-69.724135,"city":"Randolph","state":"ME"},"04347":{"lat":44.24913,"lng":-69.795037,"city":"Hallowell","state":"ME"},"04348":{"lat":44.220432,"lng":-69.513293,"city":"Jefferson","state":"ME"},"04349":{"lat":44.414056,"lng":-69.751913,"city":"Kents Hill","state":"ME"},"04350":{"lat":44.158104,"lng":-69.95404,"city":"Litchfield","state":"ME"},"04351":{"lat":44.358014,"lng":-69.867001,"city":"Manchester","state":"ME"},"04352":{"lat":44.461522,"lng":-69.986762,"city":"Mount Vernon","state":"ME"},"04353":{"lat":44.188406,"lng":-69.575119,"city":"Whitefield","state":"ME"},"04354":{"lat":44.39559,"lng":-69.4168,"city":"Palermo","state":"ME"},"04355":{"lat":44.38484,"lng":-69.953716,"city":"Readfield","state":"ME"},"04357":{"lat":44.108059,"lng":-69.827489,"city":"Richmond","state":"ME"},"04358":{"lat":44.375578,"lng":-69.586327,"city":"South China","state":"ME"},"04359":{"lat":44.183266,"lng":-69.777196,"city":"South Gardiner","state":"ME"},"04360":{"lat":44.414056,"lng":-69.751913,"city":"Vienna","state":"ME"},"04363":{"lat":44.414056,"lng":-69.751913,"city":"Windsor","state":"ME"},"04364":{"lat":44.322865,"lng":-69.957627,"city":"Winthrop","state":"ME"},"04401":{"lat":45.061744,"lng":-68.878893,"city":"Bangor","state":"ME"},"04402":{"lat":45.519867,"lng":-68.647416,"city":"Bangor","state":"ME"},"04406":{"lat":45.184103,"lng":-69.233382,"city":"Abbot","state":"ME"},"04408":{"lat":44.641873,"lng":-68.391481,"city":"Aurora","state":"ME"},"04410":{"lat":45.058864,"lng":-68.95432,"city":"Bradford","state":"ME"},"04411":{"lat":44.914946,"lng":-68.625688,"city":"Bradley","state":"ME"},"04412":{"lat":44.83561,"lng":-68.783742,"city":"Brewer","state":"ME"},"04413":{"lat":45.002969,"lng":-67.495548,"city":"Brookton","state":"ME"},"04414":{"lat":45.310095,"lng":-69.029462,"city":"Brownville","state":"ME"},"04415":{"lat":45.351184,"lng":-69.058062,"city":"Brownville Junction","state":"ME"},"04416":{"lat":44.600448,"lng":-68.773241,"city":"Bucksport","state":"ME"},"04417":{"lat":44.81782,"lng":-68.817481,"city":"Burlington","state":"ME"},"04418":{"lat":45.049429,"lng":-68.581212,"city":"Greenbush","state":"ME"},"04419":{"lat":44.808062,"lng":-68.940624,"city":"Carmel","state":"ME"},"04420":{"lat":44.412968,"lng":-68.798047,"city":"Castine","state":"ME"},"04421":{"lat":44.415639,"lng":-68.792883,"city":"Castine","state":"ME"},"04422":{"lat":45.066999,"lng":-69.040695,"city":"Charleston","state":"ME"},"04423":{"lat":45.039478,"lng":-68.529182,"city":"Costigan","state":"ME"},"04424":{"lat":45.658831,"lng":-67.866054,"city":"Danforth","state":"ME"},"04426":{"lat":45.171605,"lng":-69.207725,"city":"Dover Foxcroft","state":"ME"},"04427":{"lat":44.989376,"lng":-68.865187,"city":"Corinth","state":"ME"},"04428":{"lat":44.79169,"lng":-68.577728,"city":"Eddington","state":"ME"},"04429":{"lat":44.894294,"lng":-68.818345,"city":"Holden","state":"ME"},"04430":{"lat":45.233408,"lng":-68.689174,"city":"East Millinocket","state":"ME"},"04431":{"lat":44.561174,"lng":-68.664735,"city":"East Orland","state":"ME"},"04434":{"lat":45.519867,"lng":-68.647416,"city":"Etna","state":"ME"},"04435":{"lat":44.966032,"lng":-69.13308,"city":"Exeter","state":"ME"},"04438":{"lat":44.632657,"lng":-68.849975,"city":"Frankfort","state":"ME"},"04441":{"lat":45.792364,"lng":-69.30463,"city":"Greenville","state":"ME"},"04442":{"lat":45.792364,"lng":-69.30463,"city":"Greenville Junction","state":"ME"},"04443":{"lat":45.315976,"lng":-69.457444,"city":"Guilford","state":"ME"},"04444":{"lat":44.835984,"lng":-68.829046,"city":"Hampden","state":"ME"},"04448":{"lat":45.245635,"lng":-68.666632,"city":"Howland","state":"ME"},"04449":{"lat":45.006054,"lng":-68.884621,"city":"Hudson","state":"ME"},"04450":{"lat":44.918877,"lng":-68.965803,"city":"Kenduskeag","state":"ME"},"04451":{"lat":45.519867,"lng":-68.647416,"city":"Kingman","state":"ME"},"04453":{"lat":44.787229,"lng":-69.21821,"city":"Lagrange","state":"ME"},"04454":{"lat":45.002969,"lng":-67.495548,"city":"Lambert Lake","state":"ME"},"04455":{"lat":45.519867,"lng":-68.647416,"city":"Lee","state":"ME"},"04456":{"lat":44.871231,"lng":-69.011636,"city":"Levant","state":"ME"},"04457":{"lat":45.366794,"lng":-68.49299,"city":"Lincoln","state":"ME"},"04459":{"lat":45.519867,"lng":-68.647416,"city":"Mattawamkeag","state":"ME"},"04460":{"lat":45.618608,"lng":-68.543602,"city":"Medway","state":"ME"},"04461":{"lat":45.0542,"lng":-68.595946,"city":"Milford","state":"ME"},"04462":{"lat":45.226479,"lng":-68.752091,"city":"Millinocket","state":"ME"},"04463":{"lat":45.244612,"lng":-68.975988,"city":"Milo","state":"ME"},"04464":{"lat":45.792364,"lng":-69.30463,"city":"Monson","state":"ME"},"04467":{"lat":45.519867,"lng":-68.647416,"city":"Olamon","state":"ME"},"04468":{"lat":45.040655,"lng":-68.722962,"city":"Old Town","state":"ME"},"04469":{"lat":45.002798,"lng":-68.63343,"city":"Orono","state":"ME"},"04471":{"lat":46.516166,"lng":-68.886826,"city":"Orient","state":"ME"},"04472":{"lat":44.409375,"lng":-68.625903,"city":"Orland","state":"ME"},